"Name"	"Ideology"	"Icon"	"City"	"State"	"Latitude"	"Longitude"	"Location"	"city"
"Tennessee Freedom Coalition"	"Anti-Muslim"	"anti-muslim"	"Nashville"	"Tennessee"	36.095758	-86.82262	"(36.095758, -86.82262)"	"Chicago, IL"
"Southern Mountain Knights of the Ku Klux Klan"	"Ku Klux Klan"	"kkk"	"Franklin"	"Tennessee"	35.92	-86.86	"(35.92, -86.86)"	"Chicago, IL"
"Heterosexuals Organized for a Moral Environment (H.O.M.E.)"	"Anti-LGBT"	"anti-lgbt"	"Downers Grove"	"Illinois"	41.81329	-88.021633	"(41.81329, -88.021633)"	"Chicago, IL"
"Americans for Truth About Homosexuality"	"Anti-LGBT"	"anti-lgbt"	"Naperville"	"Illinois"	41.774855	-88.148077	"(41.774855, -88.148077)"	"Chicago, IL"
"Original Knight Riders Knights of the Ku Klux Klan"	"Ku Klux Klan"	"kkk"	"Nashville"	"Tennessee"	36.15238	-86.789388	"(36.15238, -86.789388)"	"Chicago, IL"
"Mary Noel Kershaw Foundation"	"Neo-Confederate"	"neo-confederate"	"Lobelville"	"Tennessee"	35.77	-87.78	"(35.77, -87.78)"	"Chicago, IL"
"Stahlhelm Records"	"Racist Music"	"racist-music"	"Milwaukee"	"Wisconsin"	43.03	-87.9	"(43.03, -87.9)"	"Chicago, IL"
"Political Islam"	"Anti-Muslim"	"anti-muslim"	"Nashville"	"Tennessee"	36.159543	-86.790958	"(36.159543, -86.790958)"	"Chicago, IL"
"American Freedom Party"	"White Nationalist"	"white-nationalist"	""	"Wisconsin"	42.991356	-87.943283	"(42.991356, -87.943283)"	"Chicago, IL"
"Imperial Klans of America Knights of the Ku Klux Klan"	"Ku Klux Klan"	"kkk"	"Dawson Springs"	"Kentucky"	37.16	-87.69	"(37.16, -87.69)"	"Chicago, IL"
"True Invisible Empire Knights"	"Ku Klux Klan"	"kkk"	"Elkmont"	"Alabama"	34.928974	-86.973895	"(34.928974, -86.973895)"	"Chicago, IL"
"Loyal White Knights of the Ku Klux Klan"	"Ku Klux Klan"	"kkk"	""	"Alabama"	32.927396	-87.972681	"(32.927396, -87.972681)"	"Chicago, IL"
"Nation of Islam"	"Black Separatist"	"black-separatist"	"Milwaukee"	"Wisconsin"	43.127225	-87.943283	"(43.127225, -87.943283)"	"Chicago, IL"
"Nation of Islam"	"Black Separatist"	"black-separatist"	"Pensacola"	"Florida"	30.431374	-87.246235	"(30.431374, -87.246235)"	"Chicago, IL"
"Creativity Movement"	"Neo-Nazi"	"neo-nazi"	"Mountain"	"Wisconsin"	45.18	-88.47	"(45.18, -88.47)"	"Chicago, IL"
"Northern Hammerskins"	"Racist Skinhead"	"racist-skinhead"	"Chicago"	"Illinois"	41.87	-87.62249	"(41.87, -87.62249)"	"Chicago, IL"
"New Order"	"Neo-Nazi"	"neo-nazi"	"Milwaukee"	"Wisconsin"	42.99801	-88.046089	"(42.99801, -88.046089)"	"Chicago, IL"
"Ku Klos Knights of the Ku Klux Klan"	"Ku Klux Klan"	"kkk"	"Monroe City"	"Indiana"	38.615325	-87.35446	"(38.615325, -87.35446)"	"Chicago, IL"
"Council of Conservative Citizens"	"White Nationalist"	"white-nationalist"	"Florence"	"Alabama"	34.828742	-87.648247	"(34.828742, -87.648247)"	"Chicago, IL"
"League of the South"	"Neo-Confederate"	"neo-confederate"	"Killen"	"Alabama"	34.862863	-87.537525	"(34.862863, -87.537525)"	"Chicago, IL"
"Confederate Hammerskins"	"Racist Skinhead"	"racist-skinhead"	"Nashville"	"Tennessee"	36.16	-86.78	"(36.16, -86.78)"	"Chicago, IL"
"Council of Conservative Citizens"	"White Nationalist"	"white-nationalist"	"Pulaski"	"Tennessee"	35.222318	-87.022444	"(35.222318, -87.022444)"	"Chicago, IL"
"Loyal White Knights of the Ku Klux Klan"	"Ku Klux Klan"	"kkk"	""	"Tennessee"	35.898723	-86.962408	"(35.898723, -86.962408)"	"Chicago, IL"
"Southern National Congress"	"Neo-Confederate"	"neo-confederate"	""	"Tennessee"	35.898723	-86.962408	"(35.898723, -86.962408)"	"Chicago, IL"
"All Eyes On Egipt Bookstore"	"Black Separatist"	"black-separatist"	"Chicago"	"Illinois"	41.75	-87.58	"(41.75, -87.58)"	"Chicago, IL"
"Nation of Islam"	"Black Separatist"	"black-separatist"	"Chicago"	"Illinois"	41.759792	-87.564304	"(41.759792, -87.564304)"	"Chicago, IL"
"Citizen Warrior"	"Anti-Muslim"	"anti-muslim"	"Nashville"	"Tennessee"	36.17	-86.78	"(36.17, -86.78)"	"Chicago, IL"
"National Socialist Movement"	"Neo-Nazi"	"neo-nazi"	""	"Alabama"	32.31	-86.9	"(32.31, -86.9)"	"Chicago, IL"
"Southern Mountain Knights of the Ku Klux Klan"	"Ku Klux Klan"	"kkk"	"Nashville"	"Tennessee"	36.16647	-86.783736	"(36.16647, -86.783736)"	"Chicago, IL"
"Illinois Family Institute"	"Anti-LGBT"	"anti-lgbt"	"Carol Stream"	"Illinois"	41.92	-88.12	"(41.92, -88.12)"	"Chicago, IL"
"Ecclesiastical Council for the Restoration of Covenant Israel (ECRCI)"	"Christian Identity"	"christian-identity"	"Chicago"	"Illinois"	41.85	-87.65	"(41.85, -87.65)"	"Chicago, IL"
"National Socialist Movement"	"Neo-Nazi"	"neo-nazi"	"Chicago"	"Illinois"	41.87	-87.62	"(41.87, -87.62)"	"Chicago, IL"
"Southern National Congress"	"Neo-Confederate"	"neo-confederate"	"Fruit Hill"	"Kentucky"	37	-87.36	"(37.0, -87.36)"	"Chicago, IL"
"Tea Party Nation"	"General Hate"	"other"	"Franklin"	"Tennessee"	35.861207	-86.863581	"(35.861207, -86.863581)"	"Chicago, IL"
"United Northern and Southern Knights of the Ku Klux Klan"	"Ku Klux Klan"	"kkk"	"Chicago"	"Illinois"	41.947205	-87.746807	"(41.947205, -87.746807)"	"Chicago, IL"
"League of the South"	"Neo-Confederate"	"neo-confederate"	"Crofton"	"Kentucky"	37.047821	-87.485002	"(37.047821, -87.485002)"	"Chicago, IL"
"League of the South"	"Neo-Confederate"	"neo-confederate"	"Lobelville"	"Tennessee"	35.77201	-87.783912	"(35.77201, -87.783912)"	"Chicago, IL"
"New Black Panther Party"	"Black Separatist"	"black-separatist"	"Washington"	"District of Columbia"	38.956829	-77.013344	"(38.956829, -77.013344)"	"Baltimore, MD"
"ProEnglish"	"Anti-Immigrant"	"anti-immigrant"	"Arlington"	"Virginia"	38.89	-77.06	"(38.89, -77.06)"	"Baltimore, MD"
"Creativity Alliance"	"Neo-Nazi"	"neo-nazi"	""	"Pennsylvania"	41.204231	-77.19	"(41.204231, -77.19)"	"Baltimore, MD"
"Nation of Islam"	"Black Separatist"	"black-separatist"	"Washington"	"District of Columbia"	38.869829	-76.960766	"(38.869829, -76.960766)"	"Baltimore, MD"
"Original Knight Riders Knights of the Ku Klux Klan (W. Va.)"	"Ku Klux Klan"	"kkk"	"Moyock"	"North Carolina"	36.524793	-76.178324	"(36.524793, -76.178324)"	"Baltimore, MD"
"Keystone State Skinheads"	"Racist Skinhead"	"racist-skinhead"	"Harrisburg"	"Pennsylvania"	40.268524	-76.88	"(40.268524, -76.88)"	"Baltimore, MD"
"As-Sabiqun"	"General Hate"	"other"	"Washington"	"District of Columbia"	38.896911	-77.03	"(38.896911, -77.03)"	"Baltimore, MD"
"Scott-Townsend Publishers"	"White Nationalist"	"white-nationalist"	"Washington"	"District of Columbia"	38.9	-77.02549	"(38.9, -77.02549)"	"Baltimore, MD"
"Israelite Church of God in Jesus Christ"	"Black Separatist"	"black-separatist"	"Washington"	"District of Columbia"	38.92	-76.99	"(38.92, -76.99)"	"Baltimore, MD"
"IHS Press"	"Radical Traditional Catholicism"	"rad-trad-catholicism"	"Norfolk"	"Virginia"	36.896331	-76.305418	"(36.896331, -76.305418)"	"Baltimore, MD"
"Fitzgerald Griffin Foundation"	"White Nationalist"	"white-nationalist"	"Vienna"	"Virginia"	38.901222	-77.26526	"(38.901222, -77.26526)"	"Baltimore, MD"
"Reformation-Bible Puritan-Baptist Church"	"General Hate"	"other"	"Newmanstown"	"Pennsylvania"	40.349536	-76.213282	"(40.349536, -76.213282)"	"Baltimore, MD"
"Israelite Church of God in Jesus Christ"	"Black Separatist"	"black-separatist"	"Coatesville"	"Pennsylvania"	39.983161	-75.823835	"(39.983161, -75.823835)"	"Baltimore, MD"
"Southern National Congress"	"Neo-Confederate"	"neo-confederate"	"Alexandria"	"Virginia"	38.799972	-77.050689	"(38.799972, -77.050689)"	"Baltimore, MD"
"H.L. Mencken Club"	"White Nationalist"	"white-nationalist"	"Elizabethtown"	"Pennsylvania"	40.152871	-76.602745	"(40.152871, -76.602745)"	"Baltimore, MD"
"Catholic Family and Human Rights Institute (C-FAM)"	"Anti-LGBT"	"anti-lgbt"	"Washington"	"District of Columbia"	38.908078	-77.040614	"(38.908078, -77.040614)"	"Baltimore, MD"
"Aryan Nations OH"	"Neo-Nazi"	"neo-nazi"	"Washington"	"District of Columbia"	38.9	-77.03064	"(38.9, -77.03064)"	"Baltimore, MD"
"National Socialist Freedom Movement"	"Neo-Nazi"	"neo-nazi"	""	"Maryland"	39.296336	-76.621053	"(39.296336, -76.621053)"	"Baltimore, MD"
"Loyal White Knights of the Ku Klux Klan"	"Ku Klux Klan"	"kkk"	""	"Pennsylvania"	40.266554	-76.869213	"(40.266554, -76.869213)"	"Baltimore, MD"
"Aryan Strikeforce"	"Racist Skinhead"	"racist-skinhead"	""	"Pennsylvania"	41.205006	-77.19	"(41.205006, -77.19)"	"Baltimore, MD"
"Israelite Church of God in Jesus Christ"	"Black Separatist"	"black-separatist"	"Baltimore"	"Maryland"	39.336349	-76.768277	"(39.336349, -76.768277)"	"Baltimore, MD"
"Aryan Terror Brigade"	"Racist Skinhead"	"racist-skinhead"	""	"Pennsylvania"	41.2	-77.189598	"(41.2, -77.189598)"	"Baltimore, MD"
"Family Research Council"	"Anti-LGBT"	"anti-lgbt"	"Washington"	"District of Columbia"	38.912068	-77.019022	"(38.912068, -77.019022)"	"Baltimore, MD"
"American Renaissance/New Century Foundation"	"White Nationalist"	"white-nationalist"	"Oakton"	"Virginia"	38.892351	-77.326699	"(38.892351, -77.326699)"	"Baltimore, MD"
"Maryland National Socialist Party"	"Neo-Nazi"	"neo-nazi"	"Elkridge"	"Maryland"	39.212607	-76.713581	"(39.212607, -76.713581)"	"Baltimore, MD"
"Advanced White Society"	"White Nationalist"	"white-nationalist"	"Statewide"	"Pennsylvania"	41.203321	-77.194524	"(41.203321, -77.194524)"	"Baltimore, MD"
"Nation of Islam"	"Black Separatist"	"black-separatist"	"Baltimore"	"Maryland"	39.326912	-76.682834	"(39.326912, -76.682834)"	"Baltimore, MD"
"American Free Press"	"General Hate"	"other"	"Washington"	"District of Columbia"	38.884552	-76.996886	"(38.884552, -76.996886)"	"Baltimore, MD"
"Council of Conservative Citizens"	"White Nationalist"	"white-nationalist"	"Silver Spring"	"Maryland"	39.00415	-77.039175	"(39.00415, -77.039175)"	"Baltimore, MD"
"War On The Horizon"	"Black Separatist"	"black-separatist"	"Washington"	"District of Columbia"	38.837233	-77.016143	"(38.837233, -77.016143)"	"Baltimore, MD"
"Nation of Islam"	"Black Separatist"	"black-separatist"	"Richmond"	"Virginia"	37.562127	-77.366896	"(37.562127, -77.366896)"	"Baltimore, MD"
"Label 56"	"Racist Music"	"racist-music"	"Nottingham"	"Maryland"	39.38775	-76.488118	"(39.38775, -76.488118)"	"Baltimore, MD"
"National Socialist Movement"	"Neo-Nazi"	"neo-nazi"	""	"Pennsylvania"	41.2	-77.183762	"(41.2, -77.183762)"	"Baltimore, MD"
"Nation of Islam"	"Black Separatist"	"black-separatist"	"Norfolk"	"Virginia"	36.885412	-76.26529	"(36.885412, -76.26529)"	"Baltimore, MD"
"Council of Conservative Citizens"	"White Nationalist"	"white-nationalist"	"Washington"	"District of Columbia"	38.899583	-77.03	"(38.899583, -77.03)"	"Baltimore, MD"
"Aryan Nations OH"	"Neo-Nazi"	"neo-nazi"	""	"Pennsylvania"	41.2	-77.19	"(41.2, -77.19)"	"Baltimore, MD"
"True Invisible Empire Traditionalist American Knights of the Ku Klux Klan"	"Ku Klux Klan"	"kkk"	"Harrisburg"	"Pennsylvania"	40.262588	-76.876059	"(40.262588, -76.876059)"	"Baltimore, MD"
"In the Spirit of Chartres Committee"	"Radical Traditional Catholicism"	"rad-trad-catholicism"	"Carrollton"	"Virginia"	36.946815	-76.560507	"(36.946815, -76.560507)"	"Baltimore, MD"
"Jamaat al-Muslimeen"	"General Hate"	"other"	"Baltimore"	"Maryland"	39.305668	-76.635495	"(39.305668, -76.635495)"	"Baltimore, MD"
"Federation for American Immigration Reform"	"Anti-Immigrant"	"anti-immigrant"	"Washington"	"District of Columbia"	38.9163	-77.0452	"(38.9163, -77.0452)"	"Baltimore, MD"
"Nation of Islam"	"Black Separatist"	"black-separatist"	"Harrisburg"	"Pennsylvania"	40.276554	-76.869213	"(40.276554, -76.869213)"	"Baltimore, MD"
"Southern National Congress"	"Neo-Confederate"	"neo-confederate"	""	"Maryland"	39.201384	-76.837499	"(39.201384, -76.837499)"	"Baltimore, MD"
"Die Auserwahlten"	"Racist Skinhead"	"racist-skinhead"	""	"Pennsylvania"	41.208364	-77.19	"(41.208364, -77.19)"	"Baltimore, MD"
"League of the South"	"Neo-Confederate"	"neo-confederate"	"Clements"	"Maryland"	38.326544	-76.727526	"(38.326544, -76.727526)"	"Baltimore, MD"
"Sharia Awareness Action Network"	"Anti-Muslim"	"anti-muslim"	"Washington"	"District of Columbia"	38.9	-77.03	"(38.9, -77.03)"	"Baltimore, MD"
"Traditional Values Coalition"	"Anti-LGBT"	"anti-lgbt"	"Washington"	"District of Columbia"	38.883137	-76.990227	"(38.883137, -76.990227)"	"Baltimore, MD"
"Original Knight Riders Knights of the Ku Klux Klan"	"Ku Klux Klan"	"kkk"	"Harrisburg"	"Pennsylvania"	40.27	-76.88	"(40.27, -76.88)"	"Baltimore, MD"
"Committee for Open Debate on the Holocaust"	"Holocaust Denial"	"holocaust-denial"	"Drums"	"Pennsylvania"	41.033165	-76.004373	"(41.033165, -76.004373)"	"Baltimore, MD"
"Maryland State Skinheads"	"Racist Skinhead"	"racist-skinhead"	"Baltimore"	"Maryland"	39.29	-76.61	"(39.29, -76.61)"	"Baltimore, MD"
"Council for Social and Economic Studies"	"White Nationalist"	"white-nationalist"	"Washington"	"District of Columbia"	38.908229	-77.030539	"(38.908229, -77.030539)"	"Baltimore, MD"
"National Socialist Movement"	"Neo-Nazi"	"neo-nazi"	""	"Maryland"	39.04	-76.64	"(39.04, -76.64)"	"Baltimore, MD"
"Public Advocate of the United States"	"Anti-LGBT"	"anti-lgbt"	"Falls Church"	"Virginia"	38.848531	-77.139887	"(38.848531, -77.139887)"	"Baltimore, MD"
"Silver Bullet Gun Oil"	"Anti-Muslim"	"anti-muslim"	"Courtland"	"Virginia"	36.716261	-77.068019	"(36.716261, -77.068019)"	"Baltimore, MD"
"Crew 38"	"Racist Skinhead"	"racist-skinhead"	"Baltimore"	"Maryland"	39.29286	-76.61	"(39.29286, -76.61)"	"Baltimore, MD"
"Traditional Rebel Knights of the Ku Klux Klan"	"Ku Klux Klan"	"kkk"	"Braddock Heights"	"Maryland"	39.41	-77.5	"(39.41, -77.5)"	"Baltimore, MD"
"Barnes Review/Foundation for Economic Liberty Inc."	"White Nationalist"	"white-nationalist"	"Washington"	"District of Columbia"	38.874552	-76.996886	"(38.874552, -76.996886)"	"Baltimore, MD"
"Loyal White Knights of the Ku Klux Klan"	"Ku Klux Klan"	"kkk"	""	"Maryland"	39.045542	-76.906682	"(39.045542, -76.906682)"	"Baltimore, MD"
"Nation of Islam"	"Black Separatist"	"black-separatist"	"Pine Bluff"	"Arkansas"	34.228431	-92.003195	"(34.228431, -92.003195)"	"Duluth, MN-WI"
"Faith Baptist Church and Ministry"	"Christian Identity"	"christian-identity"	"Houston"	"Missouri"	37.326158	-91.955988	"(37.326158, -91.955988)"	"Duluth, MN-WI"
"Southern National Congress"	"Neo-Confederate"	"neo-confederate"	"West Plains"	"Missouri"	36.72	-91.85	"(36.72, -91.85)"	"Duluth, MN-WI"
"Aryan Terror Brigade"	"Racist Skinhead"	"racist-skinhead"	""	"Arkansas"	35.198781	-91.83	"(35.198781, -91.83)"	"Duluth, MN-WI"
"Southern National Congress"	"Neo-Confederate"	"neo-confederate"	"incomplete"	"Louisiana"	30.98	-91.96	"(30.98, -91.96)"	"Duluth, MN-WI"
"Aryan Terror Brigade"	"Racist Skinhead"	"racist-skinhead"	""	"Louisiana"	30.997034	-91.96	"(30.997034, -91.96)"	"Duluth, MN-WI"
"Aryan Strikeforce"	"Racist Skinhead"	"racist-skinhead"	""	"Missouri"	37.96	-91.825104	"(37.96, -91.825104)"	"Duluth, MN-WI"
"White Boy Society"	"White Nationalist"	"white-nationalist"	""	"Missouri"	37.96	-91.826134	"(37.96, -91.826134)"	"Duluth, MN-WI"
"Creativity Alliance"	"Neo-Nazi"	"neo-nazi"	""	"Arkansas"	35.2	-91.833	"(35.2, -91.833)"	"Duluth, MN-WI"
"Creativity Movement"	"Neo-Nazi"	"neo-nazi"	""	"Missouri"	37.96	-91.83	"(37.96, -91.83)"	"Duluth, MN-WI"
"National Socialist Movement"	"Neo-Nazi"	"neo-nazi"	""	"Louisiana"	30.98	-91.967583	"(30.98, -91.967583)"	"Duluth, MN-WI"
"Aryan Terror Brigade"	"Racist Skinhead"	"racist-skinhead"	""	"Missouri"	37.962877	-91.83	"(37.962877, -91.83)"	"Duluth, MN-WI"
"Tightrope"	"Racist Music"	"racist-music"	"Calico Rock"	"Arkansas"	36.119514	-92.135986	"(36.119514, -92.135986)"	"Duluth, MN-WI"
"Aryan Nations LA"	"Neo-Nazi"	"neo-nazi"	""	"Arkansas"	35.1985	-91.83	"(35.1985, -91.83)"	"Duluth, MN-WI"
"Free America Rally"	"White Nationalist"	"white-nationalist"	"Incomplete"	"Louisiana"	30.984297	-91.962332	"(30.984297, -91.962332)"	"Duluth, MN-WI"
"Forssaken Motorcycle Club"	"Neo-Nazi"	"neo-nazi"	"Center Ridge"	"Arkansas"	35.37387	-92.563537	"(35.37387, -92.563537)"	"Duluth, MN-WI"
"Supreme White Alliance"	"Racist Skinhead"	"racist-skinhead"	""	"Missouri"	37.956109	-91.83	"(37.956109, -91.83)"	"Duluth, MN-WI"
"Southern National Congress"	"Neo-Confederate"	"neo-confederate"	"Incomplete"	"Arkansas"	35.2	-91.83	"(35.2, -91.83)"	"Duluth, MN-WI"
"League of the South"	"Neo-Confederate"	"neo-confederate"	"West Plains"	"Missouri"	36.728115	-91.852371	"(36.728115, -91.852371)"	"Duluth, MN-WI"
"National Socialist Freedom Movement"	"Neo-Nazi"	"neo-nazi"	""	"Louisiana"	30.984673	-91.96	"(30.984673, -91.96)"	"Duluth, MN-WI"
"Conservative Citizens Foundation Inc"	"White Nationalist"	"white-nationalist"	"Saint Louis"	"Missouri"	38.630539	-90.192821	"(38.630539, -90.192821)"	"St. Louis, MO-IL"
"Southern National Congress"	"Neo-Confederate"	"neo-confederate"	""	"Mississippi"	32.80735	-89.474217	"(32.80735, -89.474217)"	"St. Louis, MO-IL"
"Aryan Nations LA"	"Neo-Nazi"	"neo-nazi"	""	"Mississippi"	32.35	-89.39	"(32.35, -89.39)"	"St. Louis, MO-IL"
"National Association for the Advancement of America"	"White Nationalist"	"white-nationalist"	"McComb"	"Mississippi"	31.16	-90.28	"(31.16, -90.28)"	"St. Louis, MO-IL"
"Council of Conservative Citizens"	"White Nationalist"	"white-nationalist"	"St. Louis"	"Missouri"	38.578783	-90.421944	"(38.578783, -90.421944)"	"St. Louis, MO-IL"
"National Socialist Movement"	"Neo-Nazi"	"neo-nazi"	""	"Mississippi"	32.358503	-89.39	"(32.358503, -89.39)"	"St. Louis, MO-IL"
"Sadistic Souls Motorcycle Club"	"Neo-Nazi"	"neo-nazi"	"Brighton"	"Illinois"	39.03	-90.14	"(39.03, -90.14)"	"St. Louis, MO-IL"
"Nation of Islam"	"Black Separatist"	"black-separatist"	"Horn Lake"	"Mississippi"	34.963116	-90.032342	"(34.963116, -90.032342)"	"St. Louis, MO-IL"
"Political Cesspool"	"White Nationalist"	"white-nationalist"	"Bartlett"	"Tennessee"	35.15	-90.05	"(35.15, -90.05)"	"St. Louis, MO-IL"
"Traditionalist American Knights of the Ku Klux Klan"	"Ku Klux Klan"	"kkk"	"Potosi"	"Missouri"	37.936438	-90.787908	"(37.936438, -90.787908)"	"St. Louis, MO-IL"
"Mississippi White Knights of the Ku Klux Klan"	"Ku Klux Klan"	"kkk"	"Bruce"	"Mississippi"	33.992055	-89.348964	"(33.992055, -89.348964)"	"St. Louis, MO-IL"
"Watchmen Bible Study Group"	"Christian Identity"	"christian-identity"	"Wappapello"	"Missouri"	36.935556	-90.270833	"(36.935556, -90.270833)"	"St. Louis, MO-IL"
"Nation Of Islam"	"Black Separatist"	"black-separatist"	"East Saint Louis"	"Illinois"	38.615721	-90.116746	"(38.615721, -90.116746)"	"St. Louis, MO-IL"
"Christian Defense League"	"Neo-Nazi"	"neo-nazi"	"Mandeville"	"Louisiana"	30.36469	-90.08779	"(30.36469, -90.08779)"	"St. Louis, MO-IL"
"Pilgrims Covenant Church"	"Anti-LGBT"	"anti-lgbt"	"Monroe"	"Wisconsin"	42.601119	-89.638453	"(42.601119, -89.638453)"	"St. Louis, MO-IL"
"Nation of Islam"	"Black Separatist"	"black-separatist"	"St. Louis"	"Missouri"	38.708457	-90.250618	"(38.708457, -90.250618)"	"St. Louis, MO-IL"
"Sadistic Souls Motorcycle Club"	"Neo-Nazi"	"neo-nazi"	"Mercer"	"Wisconsin"	46.16	-90.06	"(46.16, -90.06)"	"St. Louis, MO-IL"
"Invictus Books"	"General Hate"	"other"	"Wentzville"	"Missouri"	38.815492	-90.873918	"(38.815492, -90.873918)"	"St. Louis, MO-IL"
"Council of Conservative Citizens"	"White Nationalist"	"white-nationalist"	"Calhoun City"	"Mississippi"	33.855391	-89.311461	"(33.855391, -89.311461)"	"St. Louis, MO-IL"
"Loyal White Knights of the Ku Klux Klan"	"Ku Klux Klan"	"kkk"	""	"Illinois"	40.695773	-89.582474	"(40.695773, -89.582474)"	"St. Louis, MO-IL"
"Council of Conservative Citizens"	"White Nationalist"	"white-nationalist"	"Jackson"	"Mississippi"	32.350399	-90.152946	"(32.350399, -90.152946)"	"St. Louis, MO-IL"
"Sadistic Souls Skinheads"	"Racist Skinhead"	"racist-skinhead"	"Wood River"	"Illinois"	38.86	-90.09	"(38.86, -90.09)"	"St. Louis, MO-IL"
"Nation of Islam"	"Black Separatist"	"black-separatist"	"East Saint Louis"	"Illinois"	38.605721	-90.116746	"(38.605721, -90.116746)"	"St. Louis, MO-IL"
"Nation of Islam"	"Black Separatist"	"black-separatist"	"Southaven"	"Mississippi"	34.99183	-90.012957	"(34.99183, -90.012957)"	"St. Louis, MO-IL"
"Loyal White Knights of the Ku Klux Klan"	"Ku Klux Klan"	"kkk"	""	"Mississippi"	32.412414	-90.290181	"(32.412414, -90.290181)"	"St. Louis, MO-IL"
"Nation of Islam"	"Black Separatist"	"black-separatist"	"Memphis"	"Tennessee"	35.133211	-90.032478	"(35.133211, -90.032478)"	"St. Louis, MO-IL"
"Aryan Strikeforce"	"Racist Skinhead"	"racist-skinhead"	""	"Illinois"	40.63	-89.39	"(40.63, -89.39)"	"St. Louis, MO-IL"
"New Black Panther Party"	"Black Separatist"	"black-separatist"	"St. Louis"	"Missouri"	38.629185	-90.217431	"(38.629185, -90.217431)"	"St. Louis, MO-IL"
"International Keystone Knights of the Ku Klux Klan"	"Ku Klux Klan"	"kkk"	"Vanndale"	"Arkansas"	35.313526	-90.773943	"(35.313526, -90.773943)"	"St. Louis, MO-IL"
"Council of Conservative Citizens"	"White Nationalist"	"white-nationalist"	"St. Louis"	"Missouri"	38.568783	-90.421944	"(38.568783, -90.421944)"	"St. Louis, MO-IL"
"Nation of Islam"	"Black Separatist"	"black-separatist"	"Peoria"	"Illinois"	40.66965	-89.639286	"(40.66965, -89.639286)"	"St. Louis, MO-IL"
"Crew 38"	"Racist Skinhead"	"racist-skinhead"	""	"Mississippi"	32.35	-89.396095	"(32.35, -89.396095)"	"St. Louis, MO-IL"
"Nation of Islam"	"Black Separatist"	"black-separatist"	"New Orleans"	"Louisiana"	30.013167	-90.020895	"(30.013167, -90.020895)"	"St. Louis, MO-IL"
"Divine International Church of the Web"	"Christian Identity"	"christian-identity"	"Morton"	"Illinois"	40.61	-89.45	"(40.61, -89.45)"	"St. Louis, MO-IL"
"Ku Klos Knights of the Ku Klux Klan"	"Ku Klux Klan"	"kkk"	"Memphis"	"Tennessee"	35.236823	-90.018655	"(35.236823, -90.018655)"	"St. Louis, MO-IL"
"Council of Conservative Citizens"	"White Nationalist"	"white-nationalist"	"Vaiden"	"Mississippi"	33.33207	-89.741193	"(33.33207, -89.741193)"	"St. Louis, MO-IL"
"Die Auserwahlten"	"Racist Skinhead"	"racist-skinhead"	"Brownsfield"	"Louisiana"	30.69	-90.97	"(30.69, -90.97)"	"St. Louis, MO-IL"
"Nation of Islam"	"Black Separatist"	"black-separatist"	"Jackson"	"Mississippi"	32.304923	-90.201023	"(32.304923, -90.201023)"	"St. Louis, MO-IL"
"Nationalist Movement"	"White Nationalist"	"white-nationalist"	"Learned"	"Mississippi"	32.19	-90.54	"(32.19, -90.54)"	"St. Louis, MO-IL"
"United Dixie White Knights Ku Klux Klan"	"Ku Klux Klan"	"kkk"	"Jackson"	"Mississippi"	32.422414	-90.290181	"(32.422414, -90.290181)"	"St. Louis, MO-IL"
"South Africa Project"	"White Nationalist"	"white-nationalist"	"Mandeville"	"Louisiana"	30.37469	-90.08779	"(30.37469, -90.08779)"	"St. Louis, MO-IL"
"White Boy Society"	"White Nationalist"	"white-nationalist"	""	"Illinois"	40.633757	-89.39	"(40.633757, -89.39)"	"St. Louis, MO-IL"
"National Socialist Movement"	"Neo-Nazi"	"neo-nazi"	""	"North Carolina"	35.754035	-79.01	"(35.754035, -79.01)"	"Raleigh-Durham, NC"
"Virginia Publishing Company"	"Christian Identity"	"christian-identity"	"Lynchburg"	"Virginia"	37.409999	-79.14	"(37.409999, -79.14)"	"Raleigh-Durham, NC"
"Crew 38"	"Racist Skinhead"	"racist-skinhead"	""	"North Carolina"	35.755707	-79.01	"(35.755707, -79.01)"	"Raleigh-Durham, NC"
"National Socialist Freedom Movement"	"Neo-Nazi"	"neo-nazi"	""	"Virginia"	37.43	-78.654213	"(37.43, -78.654213)"	"Raleigh-Durham, NC"
"Israelite Church of God in Jesus Christ"	"Black Separatist"	"black-separatist"	"Wilmington"	"North Carolina"	34.225725	-77.94471	"(34.225725, -77.94471)"	"Raleigh-Durham, NC"
"Crew 38"	"Racist Skinhead"	"racist-skinhead"	""	"Virginia"	37.436158	-78.65	"(37.436158, -78.65)"	"Raleigh-Durham, NC"
"Aryan Strikeforce"	"Racist Skinhead"	"racist-skinhead"	""	"Virginia"	37.435885	-78.65	"(37.435885, -78.65)"	"Raleigh-Durham, NC"
"Aryan Nations LA"	"Neo-Nazi"	"neo-nazi"	"Bedford"	"Virginia"	37.33	-79.52	"(37.33, -79.52)"	"Raleigh-Durham, NC"
"Southern National Congress"	"Neo-Confederate"	"neo-confederate"	""	"North Carolina"	35.402341	-79.132274	"(35.402341, -79.132274)"	"Raleigh-Durham, NC"
"White Boy Society"	"White Nationalist"	"white-nationalist"	""	"Virginia"	37.43	-78.653526	"(37.43, -78.653526)"	"Raleigh-Durham, NC"
"Nation of Islam"	"Black Separatist"	"black-separatist"	"Durham"	"North Carolina"	35.965705	-78.804282	"(35.965705, -78.804282)"	"Raleigh-Durham, NC"
"Americans for Legal Immigration (ALIPAC)"	"Anti-Immigrant"	"anti-immigrant"	"Raleigh"	"North Carolina"	35.85	-78.69	"(35.85, -78.69)"	"Raleigh-Durham, NC"
"Loyal White Knights of the Ku Klux Klan"	"Ku Klux Klan"	"kkk"	"Pelham"	"North Carolina"	36.510278	-79.471667	"(36.510278, -79.471667)"	"Raleigh-Durham, NC"
"Aryan Terror Brigade"	"Racist Skinhead"	"racist-skinhead"	""	"Virginia"	37.43	-78.64872	"(37.43, -78.64872)"	"Raleigh-Durham, NC"
"Heritage and Destiny"	"White Nationalist"	"white-nationalist"	"Little Orleans"	"Maryland"	39.704965	-78.364742	"(39.704965, -78.364742)"	"Raleigh-Durham, NC"
"Israelite Church of God in Jesus Christ"	"Black Separatist"	"black-separatist"	"Fayetteville"	"North Carolina"	35.028582	-78.962762	"(35.028582, -78.962762)"	"Raleigh-Durham, NC"
"League of the South"	"Neo-Confederate"	"neo-confederate"	"incomplete"	"Virginia"	37.43	-78.65	"(37.43, -78.65)"	"Raleigh-Durham, NC"
"National Socialist Movement"	"Neo-Nazi"	"neo-nazi"	"Myrtle Beach"	"South Carolina"	33.68	-78.88	"(33.68, -78.88)"	"Raleigh-Durham, NC"
"Nation of Islam"	"Black Separatist"	"black-separatist"	"Raleigh"	"North Carolina"	35.77443	-78.631362	"(35.77443, -78.631362)"	"Raleigh-Durham, NC"
"Creativity Alliance"	"Neo-Nazi"	"neo-nazi"	""	"North Carolina"	35.75	-79.01	"(35.75, -79.01)"	"Raleigh-Durham, NC"
"Creativity Alliance"	"Neo-Nazi"	"neo-nazi"	""	"Virginia"	37.430978	-78.65	"(37.430978, -78.65)"	"Raleigh-Durham, NC"
"Confederate Hammerskins"	"Racist Skinhead"	"racist-skinhead"	""	"North Carolina"	35.75	-79.005089	"(35.75, -79.005089)"	"Raleigh-Durham, NC"
"Sadistic Souls Motorcycle Club"	"Neo-Nazi"	"neo-nazi"	"Friedens"	"Pennsylvania"	40.05	-78.99	"(40.05, -78.99)"	"Raleigh-Durham, NC"
"Israelite Church of God in Jesus Christ"	"Black Separatist"	"black-separatist"	"Goldsboro"	"North Carolina"	35.384884	-77.992765	"(35.384884, -77.992765)"	"Raleigh-Durham, NC"
"League of the South"	"Neo-Confederate"	"neo-confederate"	"Wilmington"	"North Carolina"	34.237859	-77.947639	"(34.237859, -77.947639)"	"Raleigh-Durham, NC"
"Christian Action Network"	"Anti-Muslim"	"anti-muslim"	"Forest"	"Virginia"	37.36	-79.28	"(37.36, -79.28)"	"Raleigh-Durham, NC"
"Eastern Hammerskins"	"Racist Skinhead"	"racist-skinhead"	""	"New Hampshire"	43.19	-71.574211	"(43.19, -71.574211)"	"Boston, MA"
"Malevolent Freedom"	"White Nationalist"	"white-nationalist"	"Lowell"	"Massachusetts"	42.656813	-71.302268	"(42.656813, -71.302268)"	"Boston, MA"
"Advanced White Society"	"White Nationalist"	"white-nationalist"	""	"Massachusetts"	42.40039	-71.38	"(42.40039, -71.38)"	"Boston, MA"
"Crew 38"	"Racist Skinhead"	"racist-skinhead"	""	"New Hampshire"	43.186154	-71.57	"(43.186154, -71.57)"	"Boston, MA"
"Aryan Strikeforce"	"Racist Skinhead"	"racist-skinhead"	""	"Massachusetts"	42.403686	-71.38	"(42.403686, -71.38)"	"Boston, MA"
"Nation of Islam"	"Black Separatist"	"black-separatist"	"Boston"	"Massachusetts"	42.308298	-71.082726	"(42.308298, -71.082726)"	"Boston, MA"
"National Socialist Movement"	"Neo-Nazi"	"neo-nazi"	""	"New Hampshire"	43.19	-71.57	"(43.19, -71.57)"	"Boston, MA"
"White Man's March"	"White Nationalist"	"white-nationalist"	""	"Massachusetts"	42.4	-71.37886	"(42.4, -71.37886)"	"Boston, MA"
"Aryan Nations LA"	"Neo-Nazi"	"neo-nazi"	"Exeter"	"New Hampshire"	42.98	-70.94	"(42.98, -70.94)"	"Boston, MA"
"National Socialist Movement"	"Neo-Nazi"	"neo-nazi"	""	"Rhode Island"	41.58	-71.47	"(41.58, -71.47)"	"Boston, MA"
"Concerned Citizens and Friends of Illegal Immigration Law Enforcement"	"General Hate"	"other"	"Framingham"	"Massachusetts"	42.324004	-71.453683	"(42.324004, -71.453683)"	"Boston, MA"
"Aryan Terror Brigade"	"Racist Skinhead"	"racist-skinhead"	""	"Massachusetts"	42.4	-71.38607	"(42.4, -71.38607)"	"Boston, MA"
"New Black Panther Party"	"Black Separatist"	"black-separatist"	"Boston"	"Massachusetts"	42.354856	-71.066119	"(42.354856, -71.066119)"	"Boston, MA"
"Mass Resistance"	"Anti-LGBT"	"anti-lgbt"	"Waltham"	"Massachusetts"	42.397106	-71.259899	"(42.397106, -71.259899)"	"Boston, MA"
"National Socialist Movement"	"Neo-Nazi"	"neo-nazi"	""	"Massachusetts"	42.4	-71.38	"(42.4, -71.38)"	"Boston, MA"
"Conservative Citizens Foundation Inc"	"White Nationalist"	"white-nationalist"	"Saint Louis"	"Missouri"	38.630539	-90.192821	"(38.630539, -90.192821)"	"New Orleans, LA"
"Southern National Congress"	"Neo-Confederate"	"neo-confederate"	""	"Mississippi"	32.80735	-89.474217	"(32.80735, -89.474217)"	"New Orleans, LA"
"Aryan Nations LA"	"Neo-Nazi"	"neo-nazi"	""	"Mississippi"	32.35	-89.39	"(32.35, -89.39)"	"New Orleans, LA"
"National Association for the Advancement of America"	"White Nationalist"	"white-nationalist"	"McComb"	"Mississippi"	31.16	-90.28	"(31.16, -90.28)"	"New Orleans, LA"
"Council of Conservative Citizens"	"White Nationalist"	"white-nationalist"	"St. Louis"	"Missouri"	38.578783	-90.421944	"(38.578783, -90.421944)"	"New Orleans, LA"
"National Socialist Movement"	"Neo-Nazi"	"neo-nazi"	""	"Mississippi"	32.358503	-89.39	"(32.358503, -89.39)"	"New Orleans, LA"
"Sadistic Souls Motorcycle Club"	"Neo-Nazi"	"neo-nazi"	"Brighton"	"Illinois"	39.03	-90.14	"(39.03, -90.14)"	"New Orleans, LA"
"Nation of Islam"	"Black Separatist"	"black-separatist"	"Horn Lake"	"Mississippi"	34.963116	-90.032342	"(34.963116, -90.032342)"	"New Orleans, LA"
"Council of Conservative Citizens"	"White Nationalist"	"white-nationalist"	"Walthall"	"Mississippi"	33.60146	-89.272852	"(33.60146, -89.272852)"	"New Orleans, LA"
"Political Cesspool"	"White Nationalist"	"white-nationalist"	"Bartlett"	"Tennessee"	35.15	-90.05	"(35.15, -90.05)"	"New Orleans, LA"
"Traditionalist American Knights of the Ku Klux Klan"	"Ku Klux Klan"	"kkk"	"Potosi"	"Missouri"	37.936438	-90.787908	"(37.936438, -90.787908)"	"New Orleans, LA"
"Mississippi White Knights of the Ku Klux Klan"	"Ku Klux Klan"	"kkk"	"Bruce"	"Mississippi"	33.992055	-89.348964	"(33.992055, -89.348964)"	"New Orleans, LA"
"Watchmen Bible Study Group"	"Christian Identity"	"christian-identity"	"Wappapello"	"Missouri"	36.935556	-90.270833	"(36.935556, -90.270833)"	"New Orleans, LA"
"Nation Of Islam"	"Black Separatist"	"black-separatist"	"East Saint Louis"	"Illinois"	38.615721	-90.116746	"(38.615721, -90.116746)"	"New Orleans, LA"
"Christian Defense League"	"Neo-Nazi"	"neo-nazi"	"Mandeville"	"Louisiana"	30.36469	-90.08779	"(30.36469, -90.08779)"	"New Orleans, LA"
"Pilgrims Covenant Church"	"Anti-LGBT"	"anti-lgbt"	"Monroe"	"Wisconsin"	42.601119	-89.638453	"(42.601119, -89.638453)"	"New Orleans, LA"
"Nation of Islam"	"Black Separatist"	"black-separatist"	"St. Louis"	"Missouri"	38.708457	-90.250618	"(38.708457, -90.250618)"	"New Orleans, LA"
"Sadistic Souls Motorcycle Club"	"Neo-Nazi"	"neo-nazi"	"Mercer"	"Wisconsin"	46.16	-90.06	"(46.16, -90.06)"	"New Orleans, LA"
"Invictus Books"	"General Hate"	"other"	"Wentzville"	"Missouri"	38.815492	-90.873918	"(38.815492, -90.873918)"	"New Orleans, LA"
"Council of Conservative Citizens"	"White Nationalist"	"white-nationalist"	"Calhoun City"	"Mississippi"	33.855391	-89.311461	"(33.855391, -89.311461)"	"New Orleans, LA"
"Loyal White Knights of the Ku Klux Klan"	"Ku Klux Klan"	"kkk"	""	"Illinois"	40.695773	-89.582474	"(40.695773, -89.582474)"	"New Orleans, LA"
"Council of Conservative Citizens"	"White Nationalist"	"white-nationalist"	"Jackson"	"Mississippi"	32.350399	-90.152946	"(32.350399, -90.152946)"	"New Orleans, LA"
"Sadistic Souls Skinheads"	"Racist Skinhead"	"racist-skinhead"	"Wood River"	"Illinois"	38.86	-90.09	"(38.86, -90.09)"	"New Orleans, LA"
"Nation of Islam"	"Black Separatist"	"black-separatist"	"East Saint Louis"	"Illinois"	38.605721	-90.116746	"(38.605721, -90.116746)"	"New Orleans, LA"
"Nation of Islam"	"Black Separatist"	"black-separatist"	"Southaven"	"Mississippi"	34.99183	-90.012957	"(34.99183, -90.012957)"	"New Orleans, LA"
"Loyal White Knights of the Ku Klux Klan"	"Ku Klux Klan"	"kkk"	""	"Mississippi"	32.412414	-90.290181	"(32.412414, -90.290181)"	"New Orleans, LA"
"Nation of Islam"	"Black Separatist"	"black-separatist"	"Memphis"	"Tennessee"	35.133211	-90.032478	"(35.133211, -90.032478)"	"New Orleans, LA"
"Aryan Strikeforce"	"Racist Skinhead"	"racist-skinhead"	""	"Illinois"	40.63	-89.39	"(40.63, -89.39)"	"New Orleans, LA"
"New Black Panther Party"	"Black Separatist"	"black-separatist"	"St. Louis"	"Missouri"	38.629185	-90.217431	"(38.629185, -90.217431)"	"New Orleans, LA"
"International Keystone Knights of the Ku Klux Klan"	"Ku Klux Klan"	"kkk"	"Vanndale"	"Arkansas"	35.313526	-90.773943	"(35.313526, -90.773943)"	"New Orleans, LA"
"Council of Conservative Citizens"	"White Nationalist"	"white-nationalist"	"St. Louis"	"Missouri"	38.568783	-90.421944	"(38.568783, -90.421944)"	"New Orleans, LA"
"Nation of Islam"	"Black Separatist"	"black-separatist"	"Peoria"	"Illinois"	40.66965	-89.639286	"(40.66965, -89.639286)"	"New Orleans, LA"
"Crew 38"	"Racist Skinhead"	"racist-skinhead"	""	"Mississippi"	32.35	-89.396095	"(32.35, -89.396095)"	"New Orleans, LA"
"Nation of Islam"	"Black Separatist"	"black-separatist"	"New Orleans"	"Louisiana"	30.013167	-90.020895	"(30.013167, -90.020895)"	"New Orleans, LA"
"Divine International Church of the Web"	"Christian Identity"	"christian-identity"	"Morton"	"Illinois"	40.61	-89.45	"(40.61, -89.45)"	"New Orleans, LA"
"Ku Klos Knights of the Ku Klux Klan"	"Ku Klux Klan"	"kkk"	"Memphis"	"Tennessee"	35.236823	-90.018655	"(35.236823, -90.018655)"	"New Orleans, LA"
"Council of Conservative Citizens"	"White Nationalist"	"white-nationalist"	"Vaiden"	"Mississippi"	33.33207	-89.741193	"(33.33207, -89.741193)"	"New Orleans, LA"
"Nation of Islam"	"Black Separatist"	"black-separatist"	"Jackson"	"Mississippi"	32.304923	-90.201023	"(32.304923, -90.201023)"	"New Orleans, LA"
"Nationalist Movement"	"White Nationalist"	"white-nationalist"	"Learned"	"Mississippi"	32.19	-90.54	"(32.19, -90.54)"	"New Orleans, LA"
"United Dixie White Knights Ku Klux Klan"	"Ku Klux Klan"	"kkk"	"Jackson"	"Mississippi"	32.422414	-90.290181	"(32.422414, -90.290181)"	"New Orleans, LA"
"South Africa Project"	"White Nationalist"	"white-nationalist"	"Mandeville"	"Louisiana"	30.37469	-90.08779	"(30.37469, -90.08779)"	"New Orleans, LA"
"White Boy Society"	"White Nationalist"	"white-nationalist"	""	"Illinois"	40.633757	-89.39	"(40.633757, -89.39)"	"New Orleans, LA"
"Stop the Islamization of Nations (SION)"	"Anti-Muslim"	"anti-muslim"	"New York"	"New York"	40.736613	-74.009447	"(40.736613, -74.009447)"	"Nassua-Suffolk, NY"
"Loyal White Knights of the Ku Klux Klan"	"Ku Klux Klan"	"kkk"	"Altamont"	"New York"	42.719411	-74.006509	"(42.719411, -74.006509)"	"Nassua-Suffolk, NY"
"New Yorkers for Immigration Control and Enforcement (NYICE)"	"Anti-Immigrant"	"anti-immigrant"	"New York"	"New York"	40.741366	-73.998448	"(40.741366, -73.998448)"	"Nassua-Suffolk, NY"
"Nation of Islam"	"Black Separatist"	"black-separatist"	"Newark"	"New Jersey"	40.744016	-74.171579	"(40.744016, -74.171579)"	"Nassua-Suffolk, NY"
"American Defence League"	"Anti-Muslim"	"anti-muslim"	"New York"	"New York"	40.722784	-74.005941	"(40.722784, -74.005941)"	"Nassua-Suffolk, NY"
"All Eyes On Egipt Bookstore Brooklyn NY"	"Black Separatist"	"black-separatist"	"Brooklyn"	"New York"	40.69	-73.93	"(40.69, -73.93)"	"Nassua-Suffolk, NY"
"AC Skins"	"Racist Skinhead"	"racist-skinhead"	"Brick"	"New Jersey"	40.05	-74.13	"(40.05, -74.13)"	"Nassua-Suffolk, NY"
"Nation of Islam"	"Black Separatist"	"black-separatist"	"New York"	"New York"	40.678178	-73.944157	"(40.678178, -73.944157)"	"Nassua-Suffolk, NY"
"American Front"	"Racist Skinhead"	"racist-skinhead"	"Roselle"	"New Jersey"	40.65	-74.25	"(40.65, -74.25)"	"Nassua-Suffolk, NY"
"Israelite Church of God in Jesus Christ"	"Black Separatist"	"black-separatist"	"Jersey City"	"New Jersey"	40.700852	-74.088757	"(40.700852, -74.088757)"	"Nassua-Suffolk, NY"
"The White Voice"	"White Nationalist"	"white-nationalist"	"New York"	"New York"	40.813891	-73.956871	"(40.813891, -73.956871)"	"Nassua-Suffolk, NY"
"Israelite Church of God in Jesus Christ"	"Black Separatist"	"black-separatist"	"Asbury Park"	"New Jersey"	40.215929	-74.023515	"(40.215929, -74.023515)"	"Nassua-Suffolk, NY"
"Tony Alamo Christian Ministries"	"General Hate"	"other"	"New York"	"New York"	40.746584	-73.984531	"(40.746584, -73.984531)"	"Nassua-Suffolk, NY"
"Stop the Islamization of America (SIOA)"	"Anti-Muslim"	"anti-muslim"	"New York"	"New York"	40.759394	-73.969779	"(40.759394, -73.969779)"	"Nassua-Suffolk, NY"
"Council of Conservative Citizens"	"White Nationalist"	"white-nationalist"	"New York"	"New York"	40.715133	-74.010995	"(40.715133, -74.010995)"	"Nassua-Suffolk, NY"
"National Socialist Freedom Movement"	"Neo-Nazi"	"neo-nazi"	""	"Connecticut"	41.597729	-73.08	"(41.597729, -73.08)"	"Nassua-Suffolk, NY"
"Jewish Political Action Committee"	"Anti-LGBT"	"anti-lgbt"	"New York"	"New York"	40.709335	-73.956555	"(40.709335, -73.956555)"	"Nassua-Suffolk, NY"
"Aryan Nations LA"	"Neo-Nazi"	"neo-nazi"	"Midland Park"	"New Jersey"	40.98	-74.14	"(40.98, -74.14)"	"Nassua-Suffolk, NY"
"National Socialist Movement"	"Neo-Nazi"	"neo-nazi"	"Clifton"	"New Jersey"	40.85	-74.16	"(40.85, -74.16)"	"Nassua-Suffolk, NY"
"American Freedom Defense Initiative"	"Anti-Muslim"	"anti-muslim"	"New York"	"New York"	40.776905	-73.980064	"(40.776905, -73.980064)"	"Nassua-Suffolk, NY"
"American Front"	"Racist Skinhead"	"racist-skinhead"	"Haledon"	"New Jersey"	40.93	-74.18	"(40.93, -74.18)"	"Nassua-Suffolk, NY"
"Atlas Shrugs"	"Anti-Muslim"	"anti-muslim"	"New York"	"New York"	40.753685	-73.999163	"(40.753685, -73.999163)"	"Nassua-Suffolk, NY"
"Castle Hill Publishers"	"Holocaust Denial"	"holocaust-denial"	"New York"	"New York"	40.77977	-73.983628	"(40.77977, -73.983628)"	"Nassua-Suffolk, NY"
"Israelite Church of God In Jesus Christ"	"Black Separatist"	"black-separatist"	"New York"	"New York"	40.813891	-73.962432	"(40.813891, -73.962432)"	"Nassua-Suffolk, NY"
"National Socialist Movement"	"Neo-Nazi"	"neo-nazi"	""	"Connecticut"	41.6	-73.075562	"(41.6, -73.075562)"	"Nassua-Suffolk, NY"
"The Israelite Church of God in Jesus Christ"	"Black Separatist"	"black-separatist"	"New York"	"New York"	40.794065	-73.927164	"(40.794065, -73.927164)"	"Nassua-Suffolk, NY"
"National Socialist Movement"	"Neo-Nazi"	"neo-nazi"	"Bayonne"	"New Jersey"	40.66	-74.11	"(40.66, -74.11)"	"Nassua-Suffolk, NY"
"New Black Panther Party"	"Black Separatist"	"black-separatist"	"Queens"	"New York"	40.728223	-73.794851	"(40.728223, -73.794851)"	"Nassua-Suffolk, NY"
"Sultan Knish a blog by Daniel Greenfield"	"Anti-Muslim"	"anti-muslim"	"New York"	"New York"	40.721786	-74.009447	"(40.721786, -74.009447)"	"Nassua-Suffolk, NY"
"Black Riders Liberation Party"	"Black Separatist"	"black-separatist"	""	"New York"	42.654738	-73.788968	"(42.654738, -73.788968)"	"Nassua-Suffolk, NY"
"ATLAH World Missionary Church (All The Land Anointed Holy)"	"Anti-LGBT"	"anti-lgbt"	"New York"	"New York"	40.814849	-73.962432	"(40.814849, -73.962432)"	"Nassua-Suffolk, NY"
"Vinlanders New Jersey"	"Racist Skinhead"	"racist-skinhead"	"Point Pleasant Beach"	"New Jersey"	40.09	-74.04	"(40.09, -74.04)"	"Nassua-Suffolk, NY"
"Advanced White Society"	"White Nationalist"	"white-nationalist"	"New York"	"New York"	40.71	-74.004593	"(40.71, -74.004593)"	"Nassua-Suffolk, NY"
"The Hated"	"Racist Skinhead"	"racist-skinhead"	"Toms River"	"New Jersey"	39.95	-74.19	"(39.95, -74.19)"	"Nassua-Suffolk, NY"
"Pioneer Fund"	"White Nationalist"	"white-nationalist"	"New York"	"New York"	40.77007	-73.958024	"(40.77007, -73.958024)"	"Nassua-Suffolk, NY"
"American Freedom Party"	"White Nationalist"	"white-nationalist"	"New York"	"New York"	40.79992	-73.96831	"(40.79992, -73.96831)"	"Nassua-Suffolk, NY"
"Jewish Task Force"	"General Hate"	"other"	"Fresh Meadows"	"New York"	40.742194	-73.788968	"(40.742194, -73.788968)"	"Nassua-Suffolk, NY"
"National Socialist Movement"	"Neo-Nazi"	"neo-nazi"	"Newark"	"New Jersey"	40.73	-74.17	"(40.73, -74.17)"	"Nassua-Suffolk, NY"
"Creativity Movement"	"Neo-Nazi"	"neo-nazi"	""	"Connecticut"	41.6	-73.08	"(41.6, -73.08)"	"Nassua-Suffolk, NY"
"Abiding Truth Ministries"	"Anti-LGBT"	"anti-lgbt"	"Springfield"	"Massachusetts"	42.105667	-72.597745	"(42.105667, -72.597745)"	"Nassua-Suffolk, NY"
"Golden Dawn"	"Neo-Nazi"	"neo-nazi"	"Astoria"	"New York"	40.763372	-73.910997	"(40.763372, -73.910997)"	"Nassua-Suffolk, NY"
"Aryan Terror Brigade"	"Racist Skinhead"	"racist-skinhead"	""	"New York"	40.712915	-74	"(40.712915, -74.0)"	"Nassua-Suffolk, NY"
"National Socialist Movement"	"Neo-Nazi"	"neo-nazi"	"New York"	"New York"	40.71	-74	"(40.71, -74.0)"	"Nassua-Suffolk, NY"
"Nation of Islam"	"Black Separatist"	"black-separatist"	"Harlem"	"New York"	40.81	-73.95	"(40.81, -73.95)"	"Nassua-Suffolk, NY"
"American Front"	"Racist Skinhead"	"racist-skinhead"	"Hackensack"	"New Jersey"	40.88	-74.04	"(40.88, -74.04)"	"Nassua-Suffolk, NY"
"Aryan Nations - LA"	"Neo-Nazi"	"neo-nazi"	"North Bergen"	"New Jersey"	40.8	-74.01	"(40.8, -74.01)"	"Nassua-Suffolk, NY"
"Cultural Studies Press"	"General Hate"	"other"	"New York"	"New York"	40.737341	-73.954804	"(40.737341, -73.954804)"	"Nassua-Suffolk, NY"
"Catholic Family and Human Rights Institute (C-FAM)"	"Anti-LGBT"	"anti-lgbt"	"New York"	"New York"	40.751984	-73.969779	"(40.751984, -73.969779)"	"Nassua-Suffolk, NY"
"Free America Rally"	"White Nationalist"	"white-nationalist"	""	"New York"	40.712783	-74.005941	"(40.712783, -74.005941)"	"Nassua-Suffolk, NY"
"Creativity Alliance"	"Neo-Nazi"	"neo-nazi"	"Middlebury"	"Vermont"	44.01	-73.16	"(44.01, -73.16)"	"Burlington, VT"
"South Africa Project"	"White Nationalist"	"white-nationalist"	""	"New York"	43.237033	-73.912467	"(43.237033, -73.912467)"	"Burlington, VT"
"National Socialist Freedom Movement"	"Neo-Nazi"	"neo-nazi"	""	"Connecticut"	41.597729	-73.08	"(41.597729, -73.08)"	"Burlington, VT"
"National Socialist Movement"	"Neo-Nazi"	"neo-nazi"	""	"Vermont"	44.55	-72.57	"(44.55, -72.57)"	"Burlington, VT"
"National Socialist Movement"	"Neo-Nazi"	"neo-nazi"	""	"Connecticut"	41.6	-73.075562	"(41.6, -73.075562)"	"Burlington, VT"
"Black Riders Liberation Party"	"Black Separatist"	"black-separatist"	""	"New York"	42.654738	-73.788968	"(42.654738, -73.788968)"	"Burlington, VT"
"Aryan Strikeforce"	"Racist Skinhead"	"racist-skinhead"	""	"Vermont"	44.551579	-72.57	"(44.551579, -72.57)"	"Burlington, VT"
"Creativity Movement"	"Neo-Nazi"	"neo-nazi"	""	"Connecticut"	41.6	-73.08	"(41.6, -73.08)"	"Burlington, VT"
"Northwest Hammerskins"	"Racist Skinhead"	"racist-skinhead"	"Seattle"	"Washington"	47.597829	-122.33	"(47.597829, -122.33)"	"Seattle, WA"
"Northwest Front"	"White Nationalist"	"white-nationalist"	"Seattle"	"Washington"	47.61	-122.326241	"(47.61, -122.326241)"	"Seattle, WA"
"Crew 38"	"Racist Skinhead"	"racist-skinhead"	"Seattle"	"Washington"	47.6	-122.33	"(47.6, -122.33)"	"Seattle, WA"
"Faith Freedom"	"Anti-Muslim"	"anti-muslim"	"Bellevue"	"Washington"	47.615043	-122.171757	"(47.615043, -122.171757)"	"Seattle, WA"
"Heterosexuals Organized for a Moral Environment (H.O.M.E.)"	"Anti-LGBT"	"anti-lgbt"	"Downers Grove"	"Illinois"	41.81329	-88.021633	"(41.81329, -88.021633)"	"Mobile, AL"
"White Boy Society"	"White Nationalist"	"white-nationalist"	""	"Wisconsin"	43.78324	-88.78	"(43.78324, -88.78)"	"Mobile, AL"
"Americans for Truth About Homosexuality"	"Anti-LGBT"	"anti-lgbt"	"Naperville"	"Illinois"	41.774855	-88.148077	"(41.774855, -88.148077)"	"Mobile, AL"
"League of the South"	"Neo-Confederate"	"neo-confederate"	"Collinsville"	"Mississippi"	32.497918	-88.845883	"(32.497918, -88.845883)"	"Mobile, AL"
"Mary Noel Kershaw Foundation"	"Neo-Confederate"	"neo-confederate"	"Lobelville"	"Tennessee"	35.77	-87.78	"(35.77, -87.78)"	"Mobile, AL"
"Stahlhelm Records"	"Racist Music"	"racist-music"	"Milwaukee"	"Wisconsin"	43.03	-87.9	"(43.03, -87.9)"	"Mobile, AL"
"American Freedom Party"	"White Nationalist"	"white-nationalist"	""	"Wisconsin"	42.991356	-87.943283	"(42.991356, -87.943283)"	"Mobile, AL"
"Imperial Klans of America Knights of the Ku Klux Klan"	"Ku Klux Klan"	"kkk"	"Dawson Springs"	"Kentucky"	37.16	-87.69	"(37.16, -87.69)"	"Mobile, AL"
"Samanta Roy Institute of Science and Technology"	"General Hate"	"other"	"Shawano"	"Wisconsin"	44.78	-88.6	"(44.78, -88.6)"	"Mobile, AL"
"American Freedom Party"	"White Nationalist"	"white-nationalist"	"Baldwyn"	"Mississippi"	34.509544	-88.633919	"(34.509544, -88.633919)"	"Mobile, AL"
"Loyal White Knights of the Ku Klux Klan"	"Ku Klux Klan"	"kkk"	""	"Alabama"	32.927396	-87.972681	"(32.927396, -87.972681)"	"Mobile, AL"
"Nation of Islam"	"Black Separatist"	"black-separatist"	"Milwaukee"	"Wisconsin"	43.127225	-87.943283	"(43.127225, -87.943283)"	"Mobile, AL"
"Nation of Islam"	"Black Separatist"	"black-separatist"	"Pensacola"	"Florida"	30.431374	-87.246235	"(30.431374, -87.246235)"	"Mobile, AL"
"Creativity Movement"	"Neo-Nazi"	"neo-nazi"	"Mountain"	"Wisconsin"	45.18	-88.47	"(45.18, -88.47)"	"Mobile, AL"
"Northern Hammerskins"	"Racist Skinhead"	"racist-skinhead"	"Chicago"	"Illinois"	41.87	-87.62249	"(41.87, -87.62249)"	"Mobile, AL"
"New Order"	"Neo-Nazi"	"neo-nazi"	"Milwaukee"	"Wisconsin"	42.99801	-88.046089	"(42.99801, -88.046089)"	"Mobile, AL"
"Ku Klos Knights of the Ku Klux Klan"	"Ku Klux Klan"	"kkk"	"Monroe City"	"Indiana"	38.615325	-87.35446	"(38.615325, -87.35446)"	"Mobile, AL"
"Council of Conservative Citizens"	"White Nationalist"	"white-nationalist"	"Florence"	"Alabama"	34.828742	-87.648247	"(34.828742, -87.648247)"	"Mobile, AL"
"Pace Confederate Depot"	"Neo-Confederate"	"neo-confederate"	"Baldwyn"	"Mississippi"	34.509544	-88.635331	"(34.509544, -88.635331)"	"Mobile, AL"
"League of the South"	"Neo-Confederate"	"neo-confederate"	"Killen"	"Alabama"	34.862863	-87.537525	"(34.862863, -87.537525)"	"Mobile, AL"
"National Socialist Movement"	"Neo-Nazi"	"neo-nazi"	""	"Wisconsin"	43.78	-88.78	"(43.78, -88.78)"	"Mobile, AL"
"All Eyes On Egipt Bookstore"	"Black Separatist"	"black-separatist"	"Chicago"	"Illinois"	41.75	-87.58	"(41.75, -87.58)"	"Mobile, AL"
"Nation of Islam"	"Black Separatist"	"black-separatist"	"Chicago"	"Illinois"	41.759792	-87.564304	"(41.759792, -87.564304)"	"Mobile, AL"
"Illinois Family Institute"	"Anti-LGBT"	"anti-lgbt"	"Carol Stream"	"Illinois"	41.92	-88.12	"(41.92, -88.12)"	"Mobile, AL"
"Ecclesiastical Council for the Restoration of Covenant Israel (ECRCI)"	"Christian Identity"	"christian-identity"	"Chicago"	"Illinois"	41.85	-87.65	"(41.85, -87.65)"	"Mobile, AL"
"National Socialist Movement"	"Neo-Nazi"	"neo-nazi"	"Chicago"	"Illinois"	41.87	-87.62	"(41.87, -87.62)"	"Mobile, AL"
"Southern National Congress"	"Neo-Confederate"	"neo-confederate"	"Fruit Hill"	"Kentucky"	37	-87.36	"(37.0, -87.36)"	"Mobile, AL"
"American Family Association"	"Anti-LGBT"	"anti-lgbt"	"Tupelo"	"Mississippi"	34.25653	-88.724929	"(34.25653, -88.724929)"	"Mobile, AL"
"Confederate Patriot Voters United"	"Neo-Confederate"	"neo-confederate"	"Baldwyn"	"Mississippi"	34.505991	-88.635331	"(34.505991, -88.635331)"	"Mobile, AL"
"European American Front"	"White Nationalist"	"white-nationalist"	"Baldwyn"	"Mississippi"	34.5	-88.63	"(34.5, -88.63)"	"Mobile, AL"
"United Northern and Southern Knights of the Ku Klux Klan"	"Ku Klux Klan"	"kkk"	"Chicago"	"Illinois"	41.947205	-87.746807	"(41.947205, -87.746807)"	"Mobile, AL"
"League of the South"	"Neo-Confederate"	"neo-confederate"	"Crofton"	"Kentucky"	37.047821	-87.485002	"(37.047821, -87.485002)"	"Mobile, AL"
"League of the South"	"Neo-Confederate"	"neo-confederate"	"Lobelville"	"Tennessee"	35.77201	-87.783912	"(35.77201, -87.783912)"	"Mobile, AL"
"Bob's Underground Graduate Seminar/BUGS"	"White Nationalist"	"white-nationalist"	"Columbia"	"South Carolina"	34.029122	-81.003682	"(34.029122, -81.003682)"	"Jacksonville, FL"
"New Black Panther Party"	"Black Separatist"	"black-separatist"	"Tampa"	"Florida"	27.950575	-82.457177	"(27.950575, -82.457177)"	"Jacksonville, FL"
"American Freedom Party"	"White Nationalist"	"white-nationalist"	"Lakewood Ranch"	"Florida"	27.446686	-82.377733	"(27.446686, -82.377733)"	"Jacksonville, FL"
"Ku Klos Knights of the Ku Klux Klan"	"Ku Klux Klan"	"kkk"	"Saint James City"	"Florida"	26.543329	-82.116955	"(26.543329, -82.116955)"	"Jacksonville, FL"
"Council of Conservative Citizens"	"White Nationalist"	"white-nationalist"	"Beverly Hills"	"Florida"	28.92	-82.459999	"(28.92, -82.459999)"	"Jacksonville, FL"
"Israelite Church of God in Jesus Christ"	"Black Separatist"	"black-separatist"	"Orlando"	"Florida"	28.458885	-81.394926	"(28.458885, -81.394926)"	"Jacksonville, FL"
"Vinlanders Florida"	"Racist Skinhead"	"racist-skinhead"	""	"Florida"	27.66	-81.516838	"(27.66, -81.516838)"	"Jacksonville, FL"
"National Socialist Movement"	"Neo-Nazi"	"neo-nazi"	"Savannah"	"Georgia"	32.08	-81.09	"(32.08, -81.09)"	"Jacksonville, FL"
"Loyal White Knights of the Ku Klux Klan"	"Ku Klux Klan"	"kkk"	""	"South Carolina"	33.987338	-81.036821	"(33.987338, -81.036821)"	"Jacksonville, FL"
"League of the South"	"Neo-Confederate"	"neo-confederate"	"Jacksonville"	"Florida"	30.312149	-81.737552	"(30.312149, -81.737552)"	"Jacksonville, FL"
"Southern National Congress"	"Neo-Confederate"	"neo-confederate"	"Jacksonville"	"Florida"	30.306572	-81.72947	"(30.306572, -81.72947)"	"Jacksonville, FL"
"Crew 38"	"Racist Skinhead"	"racist-skinhead"	""	"Florida"	27.669542	-81.51	"(27.669542, -81.51)"	"Jacksonville, FL"
"Aryan Terror Brigade"	"Racist Skinhead"	"racist-skinhead"	""	"Florida"	27.66	-81.508598	"(27.66, -81.508598)"	"Jacksonville, FL"
"Aryan Strikeforce"	"Racist Skinhead"	"racist-skinhead"	""	"Florida"	27.653426	-81.51	"(27.653426, -81.51)"	"Jacksonville, FL"
"Kinist Institute"	"White Nationalist"	"white-nationalist"	"Orlando"	"Florida"	28.541665	-81.375686	"(28.541665, -81.375686)"	"Jacksonville, FL"
"Florida Family Association"	"General Hate"	"other"	"Tampa"	"Florida"	27.95	-82.459999	"(27.95, -82.459999)"	"Jacksonville, FL"
"Council of Conservative Citizens"	"White Nationalist"	"white-nationalist"	""	"Georgia"	33.046893	-81.99711	"(33.046893, -81.99711)"	"Jacksonville, FL"
"Confederate Hammerskins"	"Racist Skinhead"	"racist-skinhead"	"Orlando"	"Florida"	28.54864	-81.375686	"(28.54864, -81.375686)"	"Jacksonville, FL"
"Sharkhunters International"	"General Hate"	"other"	"Hernando"	"Florida"	28.899981	-82.37454	"(28.899981, -82.37454)"	"Jacksonville, FL"
"National Socialist Movement"	"Neo-Nazi"	"neo-nazi"	""	"Florida"	28.53	-81.37	"(28.53, -81.37)"	"Jacksonville, FL"
"True Light Pentecost Church"	"Anti-LGBT"	"anti-lgbt"	"Spartanburg"	"South Carolina"	34.949567	-81.932048	"(34.949567, -81.932048)"	"Jacksonville, FL"
"Southern Patriot Shoppe"	"Neo-Confederate"	"neo-confederate"	"Abbeville"	"South Carolina"	34.17	-82.37	"(34.17, -82.37)"	"Jacksonville, FL"
"Ku Klos Knights of the Ku Klux Klan"	"Ku Klux Klan"	"kkk"	"Lenoir"	"North Carolina"	35.914019	-81.538984	"(35.914019, -81.538984)"	"Jacksonville, FL"
"American Front"	"Racist Skinhead"	"racist-skinhead"	"Saint Cloud"	"Florida"	28.248901	-81.28118	"(28.248901, -81.28118)"	"Jacksonville, FL"
"Liberty Counsel"	"Anti-LGBT"	"anti-lgbt"	"Orlando"	"Florida"	28.566655	-81.389314	"(28.566655, -81.389314)"	"Jacksonville, FL"
"Confederate Hammerskins"	"Racist Skinhead"	"racist-skinhead"	"Ocala"	"Florida"	29.200179	-82.067952	"(29.200179, -82.067952)"	"Jacksonville, FL"
"Israelite Church of God in Jesus Christ"	"Black Separatist"	"black-separatist"	"Fort Myers"	"Florida"	26.510137	-81.94257	"(26.510137, -81.94257)"	"Jacksonville, FL"
"National Alliance"	"Neo-Nazi"	"neo-nazi"	"Mountain City"	"Tennessee"	36.47	-81.8	"(36.47, -81.8)"	"Jacksonville, FL"
"Original Knight Riders Knights of the Ku Klux Klan"	"Ku Klux Klan"	"kkk"	"Gilbert"	"South Carolina"	33.950599	-81.372937	"(33.950599, -81.372937)"	"Jacksonville, FL"
"Die Auserwahlten"	"Racist Skinhead"	"racist-skinhead"	""	"Florida"	27.66	-81.495209	"(27.66, -81.495209)"	"Jacksonville, FL"
"Dove World Outreach Center"	"General Hate"	"other"	"Bradenton"	"Florida"	27.493378	-82.377733	"(27.493378, -82.377733)"	"Jacksonville, FL"
"Southern Nationalist Network"	"Neo-Confederate"	"neo-confederate"	"Aiken"	"South Carolina"	33.56	-81.71	"(33.56, -81.71)"	"Jacksonville, FL"
"New Black Panther Party"	"Black Separatist"	"black-separatist"	"Jacksonville"	"Florida"	30.37	-81.66	"(30.37, -81.66)"	"Jacksonville, FL"
"League of the South/Southern Culture Center"	"Neo-Confederate"	"neo-confederate"	"Abbeville"	"South Carolina"	34.178171	-82.379014	"(34.178171, -82.379014)"	"Jacksonville, FL"
"Whitakeronline"	"White Nationalist"	"white-nationalist"	""	"South Carolina"	33.83	-81.167336	"(33.83, -81.167336)"	"Jacksonville, FL"
"Aryan Nations OH"	"Neo-Nazi"	"neo-nazi"	""	"Florida"	27.66	-81.51	"(27.66, -81.51)"	"Jacksonville, FL"
"Nation of Islam"	"Black Separatist"	"black-separatist"	"Orlando"	"Florida"	28.577528	-81.438885	"(28.577528, -81.438885)"	"Jacksonville, FL"
"White Advocacy Movement"	"White Nationalist"	"white-nationalist"	"Unknown"	"Florida"	27.657683	-81.51	"(27.657683, -81.51)"	"Jacksonville, FL"
"Nation Of Islam"	"Black Separatist"	"black-separatist"	"Augusta"	"Georgia"	33.477583	-82.013465	"(33.477583, -82.013465)"	"Jacksonville, FL"
"Aryan Nations LA"	"Neo-Nazi"	"neo-nazi"	"Hickory"	"North Carolina"	35.73	-81.34	"(35.73, -81.34)"	"Jacksonville, FL"
"National Socialist Freedom Movement"	"Neo-Nazi"	"neo-nazi"	""	"South Carolina"	33.832779	-81.16	"(33.832779, -81.16)"	"Jacksonville, FL"
"Confederate Hammerskins"	"Racist Skinhead"	"racist-skinhead"	"Jacksonville"	"Florida"	30.33	-81.65	"(30.33, -81.65)"	"Jacksonville, FL"
"Confederate Hammerskins"	"Racist Skinhead"	"racist-skinhead"	"Columbia"	"South Carolina"	34	-81.03	"(34.0, -81.03)"	"Jacksonville, FL"
"League of the South"	"Neo-Confederate"	"neo-confederate"	"Aiken"	"South Carolina"	33.560416	-81.719553	"(33.560416, -81.719553)"	"Jacksonville, FL"
"Insight USA"	"General Hate"	"other"	"Longwood"	"Florida"	28.690591	-81.408321	"(28.690591, -81.408321)"	"Jacksonville, FL"
"Creativity Alliance"	"Neo-Nazi"	"neo-nazi"	""	"Florida"	27.660116	-81.51	"(27.660116, -81.51)"	"Jacksonville, FL"
"Catholic Action Resource Center"	"Radical Traditional Catholicism"	"rad-trad-catholicism"	"Orlando"	"Florida"	28.568493	-81.253174	"(28.568493, -81.253174)"	"Jacksonville, FL"
"Aryan Nations LA"	"Neo-Nazi"	"neo-nazi"	"Bushnell"	"Florida"	28.66	-82.11	"(28.66, -82.11)"	"Jacksonville, FL"
"Creativity Alliance"	"Neo-Nazi"	"neo-nazi"	""	"South Carolina"	33.83	-81.16	"(33.83, -81.16)"	"Jacksonville, FL"
"American College of Pediatricians"	"Anti-LGBT"	"anti-lgbt"	"Gainesville"	"Florida"	29.71	-82.4	"(29.71, -82.4)"	"Jacksonville, FL"
"Irving Books"	"Holocaust Denial"	"holocaust-denial"	"Key West"	"Florida"	24.556163	-81.804721	"(24.556163, -81.804721)"	"Jacksonville, FL"
"New Black Panther Party"	"Black Separatist"	"black-separatist"	"Washington"	"District of Columbia"	38.956829	-77.013344	"(38.956829, -77.013344)"	"Harrisburg-Lebanon-Carlisle, PA"
"ProEnglish"	"Anti-Immigrant"	"anti-immigrant"	"Arlington"	"Virginia"	38.89	-77.06	"(38.89, -77.06)"	"Harrisburg-Lebanon-Carlisle, PA"
"Creativity Alliance"	"Neo-Nazi"	"neo-nazi"	""	"Pennsylvania"	41.204231	-77.19	"(41.204231, -77.19)"	"Harrisburg-Lebanon-Carlisle, PA"
"Confederate Hammerskins"	"Racist Skinhead"	"racist-skinhead"	"Richmond"	"Virginia"	37.54	-77.43	"(37.54, -77.43)"	"Harrisburg-Lebanon-Carlisle, PA"
"Nation of Islam"	"Black Separatist"	"black-separatist"	"Washington"	"District of Columbia"	38.869829	-76.960766	"(38.869829, -76.960766)"	"Harrisburg-Lebanon-Carlisle, PA"
"Keystone State Skinheads"	"Racist Skinhead"	"racist-skinhead"	"Harrisburg"	"Pennsylvania"	40.268524	-76.88	"(40.268524, -76.88)"	"Harrisburg-Lebanon-Carlisle, PA"
"As-Sabiqun"	"General Hate"	"other"	"Washington"	"District of Columbia"	38.896911	-77.03	"(38.896911, -77.03)"	"Harrisburg-Lebanon-Carlisle, PA"
"Scott-Townsend Publishers"	"White Nationalist"	"white-nationalist"	"Washington"	"District of Columbia"	38.9	-77.02549	"(38.9, -77.02549)"	"Harrisburg-Lebanon-Carlisle, PA"
"Israelite Church of God in Jesus Christ"	"Black Separatist"	"black-separatist"	"Washington"	"District of Columbia"	38.92	-76.99	"(38.92, -76.99)"	"Harrisburg-Lebanon-Carlisle, PA"
"Fitzgerald Griffin Foundation"	"White Nationalist"	"white-nationalist"	"Vienna"	"Virginia"	38.901222	-77.26526	"(38.901222, -77.26526)"	"Harrisburg-Lebanon-Carlisle, PA"
"Reformation-Bible Puritan-Baptist Church"	"General Hate"	"other"	"Newmanstown"	"Pennsylvania"	40.349536	-76.213282	"(40.349536, -76.213282)"	"Harrisburg-Lebanon-Carlisle, PA"
"Southern National Congress"	"Neo-Confederate"	"neo-confederate"	"Alexandria"	"Virginia"	38.799972	-77.050689	"(38.799972, -77.050689)"	"Harrisburg-Lebanon-Carlisle, PA"
"H.L. Mencken Club"	"White Nationalist"	"white-nationalist"	"Elizabethtown"	"Pennsylvania"	40.152871	-76.602745	"(40.152871, -76.602745)"	"Harrisburg-Lebanon-Carlisle, PA"
"Catholic Family and Human Rights Institute (C-FAM)"	"Anti-LGBT"	"anti-lgbt"	"Washington"	"District of Columbia"	38.908078	-77.040614	"(38.908078, -77.040614)"	"Harrisburg-Lebanon-Carlisle, PA"
"Aryan Nations OH"	"Neo-Nazi"	"neo-nazi"	"Washington"	"District of Columbia"	38.9	-77.03064	"(38.9, -77.03064)"	"Harrisburg-Lebanon-Carlisle, PA"
"National Socialist Freedom Movement"	"Neo-Nazi"	"neo-nazi"	""	"Maryland"	39.296336	-76.621053	"(39.296336, -76.621053)"	"Harrisburg-Lebanon-Carlisle, PA"
"Loyal White Knights of the Ku Klux Klan"	"Ku Klux Klan"	"kkk"	""	"Pennsylvania"	40.266554	-76.869213	"(40.266554, -76.869213)"	"Harrisburg-Lebanon-Carlisle, PA"
"Aryan Strikeforce"	"Racist Skinhead"	"racist-skinhead"	""	"Pennsylvania"	41.205006	-77.19	"(41.205006, -77.19)"	"Harrisburg-Lebanon-Carlisle, PA"
"Israelite Church of God in Jesus Christ"	"Black Separatist"	"black-separatist"	"Baltimore"	"Maryland"	39.336349	-76.768277	"(39.336349, -76.768277)"	"Harrisburg-Lebanon-Carlisle, PA"
"Aryan Terror Brigade"	"Racist Skinhead"	"racist-skinhead"	""	"Pennsylvania"	41.2	-77.189598	"(41.2, -77.189598)"	"Harrisburg-Lebanon-Carlisle, PA"
"Family Research Council"	"Anti-LGBT"	"anti-lgbt"	"Washington"	"District of Columbia"	38.912068	-77.019022	"(38.912068, -77.019022)"	"Harrisburg-Lebanon-Carlisle, PA"
"American Renaissance/New Century Foundation"	"White Nationalist"	"white-nationalist"	"Oakton"	"Virginia"	38.892351	-77.326699	"(38.892351, -77.326699)"	"Harrisburg-Lebanon-Carlisle, PA"
"Maryland National Socialist Party"	"Neo-Nazi"	"neo-nazi"	"Elkridge"	"Maryland"	39.212607	-76.713581	"(39.212607, -76.713581)"	"Harrisburg-Lebanon-Carlisle, PA"
"Advanced White Society"	"White Nationalist"	"white-nationalist"	"Statewide"	"Pennsylvania"	41.203321	-77.194524	"(41.203321, -77.194524)"	"Harrisburg-Lebanon-Carlisle, PA"
"Nation of Islam"	"Black Separatist"	"black-separatist"	"Baltimore"	"Maryland"	39.326912	-76.682834	"(39.326912, -76.682834)"	"Harrisburg-Lebanon-Carlisle, PA"
"American Free Press"	"General Hate"	"other"	"Washington"	"District of Columbia"	38.884552	-76.996886	"(38.884552, -76.996886)"	"Harrisburg-Lebanon-Carlisle, PA"
"Council of Conservative Citizens"	"White Nationalist"	"white-nationalist"	"Silver Spring"	"Maryland"	39.00415	-77.039175	"(39.00415, -77.039175)"	"Harrisburg-Lebanon-Carlisle, PA"
"War On The Horizon"	"Black Separatist"	"black-separatist"	"Washington"	"District of Columbia"	38.837233	-77.016143	"(38.837233, -77.016143)"	"Harrisburg-Lebanon-Carlisle, PA"
"Nation of Islam"	"Black Separatist"	"black-separatist"	"Richmond"	"Virginia"	37.562127	-77.366896	"(37.562127, -77.366896)"	"Harrisburg-Lebanon-Carlisle, PA"
"Label 56"	"Racist Music"	"racist-music"	"Nottingham"	"Maryland"	39.38775	-76.488118	"(39.38775, -76.488118)"	"Harrisburg-Lebanon-Carlisle, PA"
"National Socialist Movement"	"Neo-Nazi"	"neo-nazi"	""	"Pennsylvania"	41.2	-77.183762	"(41.2, -77.183762)"	"Harrisburg-Lebanon-Carlisle, PA"
"Council of Conservative Citizens"	"White Nationalist"	"white-nationalist"	"Washington"	"District of Columbia"	38.899583	-77.03	"(38.899583, -77.03)"	"Harrisburg-Lebanon-Carlisle, PA"
"Aryan Nations OH"	"Neo-Nazi"	"neo-nazi"	""	"Pennsylvania"	41.2	-77.19	"(41.2, -77.19)"	"Harrisburg-Lebanon-Carlisle, PA"
"True Invisible Empire Traditionalist American Knights of the Ku Klux Klan"	"Ku Klux Klan"	"kkk"	"Harrisburg"	"Pennsylvania"	40.262588	-76.876059	"(40.262588, -76.876059)"	"Harrisburg-Lebanon-Carlisle, PA"
"In the Spirit of Chartres Committee"	"Radical Traditional Catholicism"	"rad-trad-catholicism"	"Carrollton"	"Virginia"	36.946815	-76.560507	"(36.946815, -76.560507)"	"Harrisburg-Lebanon-Carlisle, PA"
"Jamaat al-Muslimeen"	"General Hate"	"other"	"Baltimore"	"Maryland"	39.305668	-76.635495	"(39.305668, -76.635495)"	"Harrisburg-Lebanon-Carlisle, PA"
"Federation for American Immigration Reform"	"Anti-Immigrant"	"anti-immigrant"	"Washington"	"District of Columbia"	38.9163	-77.0452	"(38.9163, -77.0452)"	"Harrisburg-Lebanon-Carlisle, PA"
"Nation of Islam"	"Black Separatist"	"black-separatist"	"Harrisburg"	"Pennsylvania"	40.276554	-76.869213	"(40.276554, -76.869213)"	"Harrisburg-Lebanon-Carlisle, PA"
"Southern National Congress"	"Neo-Confederate"	"neo-confederate"	""	"Maryland"	39.201384	-76.837499	"(39.201384, -76.837499)"	"Harrisburg-Lebanon-Carlisle, PA"
"Die Auserwahlten"	"Racist Skinhead"	"racist-skinhead"	""	"Pennsylvania"	41.208364	-77.19	"(41.208364, -77.19)"	"Harrisburg-Lebanon-Carlisle, PA"
"League of the South"	"Neo-Confederate"	"neo-confederate"	"Clements"	"Maryland"	38.326544	-76.727526	"(38.326544, -76.727526)"	"Harrisburg-Lebanon-Carlisle, PA"
"Sharia Awareness Action Network"	"Anti-Muslim"	"anti-muslim"	"Washington"	"District of Columbia"	38.9	-77.03	"(38.9, -77.03)"	"Harrisburg-Lebanon-Carlisle, PA"
"Traditional Values Coalition"	"Anti-LGBT"	"anti-lgbt"	"Washington"	"District of Columbia"	38.883137	-76.990227	"(38.883137, -76.990227)"	"Harrisburg-Lebanon-Carlisle, PA"
"Original Knight Riders Knights of the Ku Klux Klan"	"Ku Klux Klan"	"kkk"	"Harrisburg"	"Pennsylvania"	40.27	-76.88	"(40.27, -76.88)"	"Harrisburg-Lebanon-Carlisle, PA"
"Committee for Open Debate on the Holocaust"	"Holocaust Denial"	"holocaust-denial"	"Drums"	"Pennsylvania"	41.033165	-76.004373	"(41.033165, -76.004373)"	"Harrisburg-Lebanon-Carlisle, PA"
"Maryland State Skinheads"	"Racist Skinhead"	"racist-skinhead"	"Baltimore"	"Maryland"	39.29	-76.61	"(39.29, -76.61)"	"Harrisburg-Lebanon-Carlisle, PA"
"Council for Social and Economic Studies"	"White Nationalist"	"white-nationalist"	"Washington"	"District of Columbia"	38.908229	-77.030539	"(38.908229, -77.030539)"	"Harrisburg-Lebanon-Carlisle, PA"
"National Socialist Movement"	"Neo-Nazi"	"neo-nazi"	""	"Maryland"	39.04	-76.64	"(39.04, -76.64)"	"Harrisburg-Lebanon-Carlisle, PA"
"Public Advocate of the United States"	"Anti-LGBT"	"anti-lgbt"	"Falls Church"	"Virginia"	38.848531	-77.139887	"(38.848531, -77.139887)"	"Harrisburg-Lebanon-Carlisle, PA"
"Silver Bullet Gun Oil"	"Anti-Muslim"	"anti-muslim"	"Courtland"	"Virginia"	36.716261	-77.068019	"(36.716261, -77.068019)"	"Harrisburg-Lebanon-Carlisle, PA"
"Crew 38"	"Racist Skinhead"	"racist-skinhead"	"Baltimore"	"Maryland"	39.29286	-76.61	"(39.29286, -76.61)"	"Harrisburg-Lebanon-Carlisle, PA"
"Traditional Rebel Knights of the Ku Klux Klan"	"Ku Klux Klan"	"kkk"	"Braddock Heights"	"Maryland"	39.41	-77.5	"(39.41, -77.5)"	"Harrisburg-Lebanon-Carlisle, PA"
"Barnes Review/Foundation for Economic Liberty Inc."	"White Nationalist"	"white-nationalist"	"Washington"	"District of Columbia"	38.874552	-76.996886	"(38.874552, -76.996886)"	"Harrisburg-Lebanon-Carlisle, PA"
"Loyal White Knights of the Ku Klux Klan"	"Ku Klux Klan"	"kkk"	""	"Maryland"	39.045542	-76.906682	"(39.045542, -76.906682)"	"Harrisburg-Lebanon-Carlisle, PA"
"Council of Conservative Citizens"	"White Nationalist"	"white-nationalist"	"Montgomery"	"Alabama"	32.398931	-86.322463	"(32.398931, -86.322463)"	"Indianapolis, IN"
"TC Family (Traverse City Family)"	"Anti-LGBT"	"anti-lgbt"	"Traverse City"	"Michigan"	44.763056	-85.620631	"(44.763056, -85.620631)"	"Indianapolis, IN"
"Tennessee Freedom Coalition"	"Anti-Muslim"	"anti-muslim"	"Nashville"	"Tennessee"	36.095758	-86.82262	"(36.095758, -86.82262)"	"Indianapolis, IN"
"United Klans of America"	"Ku Klux Klan"	"kkk"	"Anniston"	"Alabama"	33.659825	-85.831631	"(33.659825, -85.831631)"	"Indianapolis, IN"
"Southern Mountain Knights of the Ku Klux Klan"	"Ku Klux Klan"	"kkk"	"Franklin"	"Tennessee"	35.92	-86.86	"(35.92, -86.86)"	"Indianapolis, IN"
"American Front"	"Racist Skinhead"	"racist-skinhead"	"Lynn Haven"	"Florida"	30.24	-85.64	"(30.24, -85.64)"	"Indianapolis, IN"
"Original Knight Riders Knights of the Ku Klux Klan"	"Ku Klux Klan"	"kkk"	"Nashville"	"Tennessee"	36.15238	-86.789388	"(36.15238, -86.789388)"	"Indianapolis, IN"
"Crew 38"	"Racist Skinhead"	"racist-skinhead"	"Huntsville"	"Alabama"	34.730891	-86.58	"(34.730891, -86.58)"	"Indianapolis, IN"
"Political Islam"	"Anti-Muslim"	"anti-muslim"	"Nashville"	"Tennessee"	36.159543	-86.790958	"(36.159543, -86.790958)"	"Indianapolis, IN"
"Creativity Alliance"	"Neo-Nazi"	"neo-nazi"	""	"Tennessee"	35.509872	-86.58	"(35.509872, -86.58)"	"Indianapolis, IN"
"White Aryan Resistance"	"Neo-Nazi"	"neo-nazi"	"Warsaw"	"Indiana"	41.23	-85.85	"(41.23, -85.85)"	"Indianapolis, IN"
"True Invisible Empire Knights"	"Ku Klux Klan"	"kkk"	"Elkmont"	"Alabama"	34.928974	-86.973895	"(34.928974, -86.973895)"	"Indianapolis, IN"
"Vinlanders Indiana"	"Racist Skinhead"	"racist-skinhead"	"Knightstown"	"Indiana"	39.79	-85.52	"(39.79, -85.52)"	"Indianapolis, IN"
"American Vikings"	"White Nationalist"	"white-nationalist"	"Knightstown"	"Indiana"	39.791127	-85.52	"(39.791127, -85.52)"	"Indianapolis, IN"
"Loyal White Knights of the Ku Klux Klan"	"Ku Klux Klan"	"kkk"	"Kokomo"	"Indiana"	40.535199	-86.18	"(40.535199, -86.18)"	"Indianapolis, IN"
"Aryan Strikeforce"	"Racist Skinhead"	"racist-skinhead"	""	"Indiana"	40.263547	-86.13	"(40.263547, -86.13)"	"Indianapolis, IN"
"Nation of Islam"	"Black Separatist"	"black-separatist"	"Birmingham"	"Alabama"	33.551839	-86.816757	"(33.551839, -86.816757)"	"Indianapolis, IN"
"Aryan Nations OH"	"Neo-Nazi"	"neo-nazi"	""	"Michigan"	44.31	-85.6	"(44.31, -85.6)"	"Indianapolis, IN"
"United Klans of America"	"Ku Klux Klan"	"kkk"	"Ashland"	"Alabama"	33.273725	-85.836074	"(33.273725, -85.836074)"	"Indianapolis, IN"
"WTM Enterprises"	"White Nationalist"	"white-nationalist"	"Roanoke"	"Indiana"	40.962546	-85.373307	"(40.962546, -85.373307)"	"Indianapolis, IN"
"Traditionalist American Knights of the Ku Klux Klan"	"Ku Klux Klan"	"kkk"	"Prattville"	"Alabama"	32.475494	-86.428853	"(32.475494, -86.428853)"	"Indianapolis, IN"
"Gallows Tree Wotansvolk Alliance"	"Neo-Nazi"	"neo-nazi"	""	"Indiana"	40.26	-86.13	"(40.26, -86.13)"	"Indianapolis, IN"
"League of the South"	"Neo-Confederate"	"neo-confederate"	"Wetumpka"	"Alabama"	32.553744	-86.211912	"(32.553744, -86.211912)"	"Indianapolis, IN"
"Nation of Islam"	"Black Separatist"	"black-separatist"	"Grand Rapids"	"Michigan"	42.920478	-85.647216	"(42.920478, -85.647216)"	"Indianapolis, IN"
"Council of Conservative Citizens"	"White Nationalist"	"white-nationalist"	"Birmingham"	"Alabama"	33.65	-86.68	"(33.65, -86.68)"	"Indianapolis, IN"
"Confederate Hammerskins"	"Racist Skinhead"	"racist-skinhead"	"Nashville"	"Tennessee"	36.16	-86.78	"(36.16, -86.78)"	"Indianapolis, IN"
"Protestant White Nationalist Party of Kentucky/Uncreated Light"	"White Nationalist"	"white-nationalist"	"Louisville"	"Kentucky"	38.25	-85.75	"(38.25, -85.75)"	"Indianapolis, IN"
"Culture Wars/Fidelity Press"	"Radical Traditional Catholicism"	"rad-trad-catholicism"	"South Bend"	"Indiana"	41.689403	-86.252357	"(41.689403, -86.252357)"	"Indianapolis, IN"
"Fraternal Order of the Cross"	"Ku Klux Klan"	"kkk"	"Madison"	"Indiana"	38.735893	-85.379957	"(38.735893, -85.379957)"	"Indianapolis, IN"
"Loyal White Knights of the Ku Klux Klan"	"Ku Klux Klan"	"kkk"	""	"Tennessee"	35.898723	-86.962408	"(35.898723, -86.962408)"	"Indianapolis, IN"
"Traditionalist Youth Network at Indiana University"	"White Nationalist"	"white-nationalist"	"Bloomington"	"Indiana"	39.165325	-86.526385	"(39.165325, -86.526385)"	"Indianapolis, IN"
"Crew 38"	"Racist Skinhead"	"racist-skinhead"	"Birmingham"	"Alabama"	33.52	-86.8	"(33.52, -86.8)"	"Indianapolis, IN"
"Southern National Congress"	"Neo-Confederate"	"neo-confederate"	""	"Tennessee"	35.898723	-86.962408	"(35.898723, -86.962408)"	"Indianapolis, IN"
"Citizen Warrior"	"Anti-Muslim"	"anti-muslim"	"Nashville"	"Tennessee"	36.17	-86.78	"(36.17, -86.78)"	"Indianapolis, IN"
"National Socialist Movement"	"Neo-Nazi"	"neo-nazi"	""	"Alabama"	32.31	-86.9	"(32.31, -86.9)"	"Indianapolis, IN"
"Southern Mountain Knights of the Ku Klux Klan"	"Ku Klux Klan"	"kkk"	"Nashville"	"Tennessee"	36.16647	-86.783736	"(36.16647, -86.783736)"	"Indianapolis, IN"
"Crew 38"	"Racist Skinhead"	"racist-skinhead"	""	"Indiana"	40.26	-86.123543	"(40.26, -86.123543)"	"Indianapolis, IN"
"Tea Party Nation"	"General Hate"	"other"	"Franklin"	"Tennessee"	35.861207	-86.863581	"(35.861207, -86.863581)"	"Indianapolis, IN"
"Nation of Islam"	"Black Separatist"	"black-separatist"	"Indianapolis"	"Indiana"	39.802988	-86.103918	"(39.802988, -86.103918)"	"Indianapolis, IN"
"Southern National Congress"	"Neo-Confederate"	"neo-confederate"	"Wetumpka"	"Alabama"	32.543744	-86.211912	"(32.543744, -86.211912)"	"Indianapolis, IN"
"Confederate Hammerskins"	"Racist Skinhead"	"racist-skinhead"	"Huntsville"	"Alabama"	34.73	-86.58	"(34.73, -86.58)"	"Indianapolis, IN"
"Gallows Tree Wotansvolk Alliance"	"Neo-Nazi"	"neo-nazi"	"Grand Rapids"	"Michigan"	42.96	-85.66	"(42.96, -85.66)"	"Indianapolis, IN"
"Aryan Nations OH"	"Neo-Nazi"	"neo-nazi"	""	"Tennessee"	35.51	-86.58	"(35.51, -86.58)"	"Indianapolis, IN"
"National Socialist Movement"	"Neo-Nazi"	"neo-nazi"	""	"Tennessee"	35.51	-86.58	"(35.51, -86.58)"	"Indianapolis, IN"
"Ku Klos Knights of the Ku Klux Klan"	"Ku Klux Klan"	"kkk"	"Kokomo"	"Indiana"	40.53	-86.18	"(40.53, -86.18)"	"Indianapolis, IN"
"National Youth Front"	"White Nationalist"	"white-nationalist"	"Indianapolis"	"Indiana"	39.76	-86.15	"(39.76, -86.15)"	"Indianapolis, IN"
"Supreme White Alliance"	"Racist Skinhead"	"racist-skinhead"	"Frankfort"	"Kentucky"	38.248101	-84.898477	"(38.248101, -84.898477)"	"Atlanta, GA"
"Occidental Dissent"	"White Nationalist"	"white-nationalist"	"Eufaula"	"Alabama"	31.979345	-85.168674	"(31.979345, -85.168674)"	"Atlanta, GA"
"Aryan Terror Brigade"	"Racist Skinhead"	"racist-skinhead"	""	"Kentucky"	37.83	-84.270973	"(37.83, -84.270973)"	"Atlanta, GA"
"Council of Conservative Citizens"	"White Nationalist"	"white-nationalist"	"Eufaula"	"Alabama"	31.969345	-85.168674	"(31.969345, -85.168674)"	"Atlanta, GA"
"Islam: the Religion of Peace (and a big stack of dead bodies)"	"Anti-Muslim"	"anti-muslim"	"Marietta"	"Georgia"	33.966826	-84.443522	"(33.966826, -84.443522)"	"Atlanta, GA"
"Occidental Quarterly/Charles Martel Society"	"White Nationalist"	"white-nationalist"	"Atlanta"	"Georgia"	33.75	-84.39	"(33.75, -84.39)"	"Atlanta, GA"
"Trinity White Knights of the Ku Klux Klan"	"Ku Klux Klan"	"kkk"	"Georgetown"	"Kentucky"	38.2	-84.55	"(38.2, -84.55)"	"Atlanta, GA"
"All Eyes On Egypt Bookstore"	"Black Separatist"	"black-separatist"	"Macon"	"Georgia"	32.84	-83.63	"(32.84, -83.63)"	"Atlanta, GA"
"Southern Mountain Knights of the Ku Klux Klan"	"Ku Klux Klan"	"kkk"	"Alcoa"	"Tennessee"	35.78	-83.97	"(35.78, -83.97)"	"Atlanta, GA"
"Heathens Motorcycle Club"	"Neo-Nazi"	"neo-nazi"	"Rome"	"Georgia"	34.257038	-85.164672	"(34.257038, -85.164672)"	"Atlanta, GA"
"Crew 38"	"Racist Skinhead"	"racist-skinhead"	"Dallas"	"Georgia"	33.92	-84.84	"(33.92, -84.84)"	"Atlanta, GA"
"American Vision"	"Anti-LGBT"	"anti-lgbt"	"Powder Springs"	"Georgia"	33.859549	-84.683824	"(33.859549, -84.683824)"	"Atlanta, GA"
"New Black Panther Party"	"Black Separatist"	"black-separatist"	"Atlanta"	"Georgia"	33.76	-84.39	"(33.76, -84.39)"	"Atlanta, GA"
"Nation of Islam"	"Black Separatist"	"black-separatist"	"Lexington"	"Kentucky"	38.046818	-84.494687	"(38.046818, -84.494687)"	"Atlanta, GA"
"Original Knight Riders Knights of the Ku Klux Klan"	"Ku Klux Klan"	"kkk"	"Frankfort"	"Kentucky"	38.200905	-84.873283	"(38.200905, -84.873283)"	"Atlanta, GA"
"Southern National Congress"	"Neo-Confederate"	"neo-confederate"	"Morganton"	"Georgia"	34.876667	-84.245556	"(34.876667, -84.245556)"	"Atlanta, GA"
"National Socialist Movement"	"Neo-Nazi"	"neo-nazi"	"Tallahassee"	"Florida"	30.43	-84.28	"(30.43, -84.28)"	"Atlanta, GA"
"Battalion 14"	"Neo-Nazi"	"neo-nazi"	"Jackson"	"Michigan"	42.24	-84.4	"(42.24, -84.4)"	"Atlanta, GA"
"Council of Conservative Citizens"	"White Nationalist"	"white-nationalist"	"Springboro"	"Ohio"	39.546908	-84.242732	"(39.546908, -84.242732)"	"Atlanta, GA"
"Creativity Movement"	"Neo-Nazi"	"neo-nazi"	""	"Kentucky"	37.83	-84.274406	"(37.83, -84.274406)"	"Atlanta, GA"
"Aryan Strikeforce"	"Racist Skinhead"	"racist-skinhead"	""	"Kentucky"	37.836903	-84.27	"(37.836903, -84.27)"	"Atlanta, GA"
"Kinsman Redeemer Ministries"	"Christian Identity"	"christian-identity"	"Alexandria"	"Kentucky"	38.959507	-84.387994	"(38.959507, -84.387994)"	"Atlanta, GA"
"Loyal White Knights of the Ku Klux Klan"	"Ku Klux Klan"	"kkk"	""	"Kentucky"	38.258101	-84.898477	"(38.258101, -84.898477)"	"Atlanta, GA"
"Covenant People's Ministry"	"Christian Identity"	"christian-identity"	"Brooks"	"Georgia"	33.290951	-84.45937	"(33.290951, -84.45937)"	"Atlanta, GA"
"Loyal White Knights of the Ku Klux Klan"	"Ku Klux Klan"	"kkk"	""	"Florida"	30.509943	-84.364719	"(30.509943, -84.364719)"	"Atlanta, GA"
"Aryan Nations OH"	"Neo-Nazi"	"neo-nazi"	""	"Kentucky"	37.83	-84.27	"(37.83, -84.27)"	"Atlanta, GA"
"Ku Klos Knights of the Ku Klux Klan"	"Ku Klux Klan"	"kkk"	"Knoxville"	"Tennessee"	35.960638	-83.920739	"(35.960638, -83.920739)"	"Atlanta, GA"
"Nation of Islam"	"Black Separatist"	"black-separatist"	"Atlanta"	"Georgia"	33.689184	-84.50818	"(33.689184, -84.50818)"	"Atlanta, GA"
"National Socialist Freedom Movement"	"Neo-Nazi"	"neo-nazi"	""	"Georgia"	33.948814	-84.537945	"(33.948814, -84.537945)"	"Atlanta, GA"
"Truth At Last"	"General Hate"	"other"	"Marietta"	"Georgia"	33.95	-84.55	"(33.95, -84.55)"	"Atlanta, GA"
"Islam: Making a True Difference in the World -- One Body at a Time"	"Anti-Muslim"	"anti-muslim"	"Marietta"	"Georgia"	33.976826	-84.443522	"(33.976826, -84.443522)"	"Atlanta, GA"
"Red October"	"White Nationalist"	"white-nationalist"	"Hamilton"	"Ohio"	39.3995	-84.561335	"(39.3995, -84.561335)"	"Atlanta, GA"
"Southern Mountain Knights of the Ku Klux Klan"	"Ku Klux Klan"	"kkk"	"Clinton"	"Tennessee"	36.1	-84.13	"(36.1, -84.13)"	"Atlanta, GA"
"Christ or Chaos"	"Radical Traditional Catholicism"	"rad-trad-catholicism"	"West Chester"	"Ohio"	39.328237	-84.553667	"(39.328237, -84.553667)"	"Atlanta, GA"
"Creativity Movement"	"Neo-Nazi"	"neo-nazi"	"Covington"	"Ohio"	40.11	-84.35	"(40.11, -84.35)"	"Atlanta, GA"
"Fellowship of God's Covenant People"	"Christian Identity"	"christian-identity"	"Union"	"Kentucky"	38.945895	-84.680501	"(38.945895, -84.680501)"	"Atlanta, GA"
"National Socialist Movement"	"Neo-Nazi"	"neo-nazi"	"Atlanta"	"Georgia"	33.743469	-84.38	"(33.743469, -84.38)"	"Atlanta, GA"
"Loyal White Knights of the Ku Klux Klan"	"Ku Klux Klan"	"kkk"	""	"Georgia"	32.232644	-83.464355	"(32.232644, -83.464355)"	"Atlanta, GA"
"Sons of Thundr (Faith Baptist Church)"	"Anti-LGBT"	"anti-lgbt"	"Luthersville"	"Georgia"	33.21012	-84.744376	"(33.21012, -84.744376)"	"Atlanta, GA"
"National Socialist Movement"	"Neo-Nazi"	"neo-nazi"	""	"Kentucky"	37.833378	-84.27	"(37.833378, -84.27)"	"Atlanta, GA"
"League of the South"	"Neo-Confederate"	"neo-confederate"	"Macon"	"Georgia"	32.840694	-83.632402	"(32.840694, -83.632402)"	"Atlanta, GA"
"Nation of Islam"	"Black Separatist"	"black-separatist"	"Dayton"	"Ohio"	39.738371	-84.291075	"(39.738371, -84.291075)"	"Atlanta, GA"
"Alternative Right"	"White Nationalist"	"white-nationalist"	"Atlanta"	"Georgia"	33.74	-84.38	"(33.74, -84.38)"	"Atlanta, GA"
"Southern Mountain Knights of the Ku Klux Klan"	"Ku Klux Klan"	"kkk"	"Harrogate"	"Tennessee"	36.58	-83.65	"(36.58, -83.65)"	"Atlanta, GA"
"Nation of Islam"	"Black Separatist"	"black-separatist"	"Greensboro"	"North Carolina"	36.019649	-79.762417	"(36.019649, -79.762417)"	"Charleston, SC"
"Loyal White Knights of the Ku Klux Klan"	"Ku Klux Klan"	"kkk"	"Eden"	"North Carolina"	36.488471	-79.766702	"(36.488471, -79.766702)"	"Charleston, SC"
"Nation of Islam"	"Black Separatist"	"black-separatist"	"Charleston"	"South Carolina"	32.866954	-79.975221	"(32.866954, -79.975221)"	"Charleston, SC"
"Loyal White Knights of the Ku Klux Klan"	"Ku Klux Klan"	"kkk"	"Pelham"	"North Carolina"	36.510278	-79.471667	"(36.510278, -79.471667)"	"Charleston, SC"
"United States Defense League"	"Anti-Muslim"	"anti-muslim"	"Monroe"	"North Carolina"	34.98	-80.54	"(34.98, -80.54)"	"Charleston, SC"
"Patriotic Flags"	"White Nationalist"	"white-nationalist"	"Charleston"	"South Carolina"	32.996209	-80.184261	"(32.996209, -80.184261)"	"Charleston, SC"
"Council of Conservative Citizens"	"White Nationalist"	"white-nationalist"	"Summerville"	"South Carolina"	33.018503	-80.175648	"(33.018503, -80.175648)"	"Charleston, SC"
"Council of Conservative Citizens"	"White Nationalist"	"white-nationalist"	"Winston-Salem"	"North Carolina"	36.11	-80.24	"(36.11, -80.24)"	"Charleston, SC"
"Citizens for National Security"	"Anti-Muslim"	"anti-muslim"	"Boca Raton"	"Florida"	26.360597	-80.174669	"(26.360597, -80.174669)"	"Miami-Hialeah, FL"
"Nation of Islam"	"Black Separatist"	"black-separatist"	"Fort Lauderdale"	"Florida"	26.129244	-80.163714	"(26.129244, -80.163714)"	"Miami-Hialeah, FL"
"Creativity Movement"	"Neo-Nazi"	"neo-nazi"	"Palm Bay"	"Florida"	28.03	-80.58	"(28.03, -80.58)"	"Miami-Hialeah, FL"
"Truth In Action Ministries"	"Anti-LGBT"	"anti-lgbt"	"Fort Lauderdale"	"Florida"	26.119336	-80.12908	"(26.119336, -80.12908)"	"Miami-Hialeah, FL"
"Israelite Church of God in Jesus Christ"	"Black Separatist"	"black-separatist"	"West Palm Beach"	"Florida"	26.653081	-80.131692	"(26.653081, -80.131692)"	"Miami-Hialeah, FL"
"Nation of Islam"	"Black Separatist"	"black-separatist"	"Miami"	"Florida"	25.827362	-80.208564	"(25.827362, -80.208564)"	"Miami-Hialeah, FL"
"Stormfront"	"White Nationalist"	"white-nationalist"	"West Palm Beach"	"Florida"	26.665499	-80.05908	"(26.665499, -80.05908)"	"Miami-Hialeah, FL"
"Israelite Church of God in Jesus Christ"	"Black Separatist"	"black-separatist"	"Miami"	"Florida"	25.940058	-80.215399	"(25.940058, -80.215399)"	"Miami-Hialeah, FL"
"The United West"	"Anti-Muslim"	"anti-muslim"	"Lake Worth"	"Florida"	26.616755	-80.068447	"(26.616755, -80.068447)"	"Miami-Hialeah, FL"
"Eastern Hammerskins"	"Racist Skinhead"	"racist-skinhead"	"Allentown"	"Pennsylvania"	40.6	-75.49	"(40.6, -75.49)"	"Syracuse, NY"
"Reformation-Bible Puritan-Baptist Church"	"General Hate"	"other"	"Newmanstown"	"Pennsylvania"	40.349536	-76.213282	"(40.349536, -76.213282)"	"Syracuse, NY"
"Israelite Church of God in Jesus Christ"	"Black Separatist"	"black-separatist"	"Coatesville"	"Pennsylvania"	39.983161	-75.823835	"(39.983161, -75.823835)"	"Syracuse, NY"
"H.L. Mencken Club"	"White Nationalist"	"white-nationalist"	"Elizabethtown"	"Pennsylvania"	40.152871	-76.602745	"(40.152871, -76.602745)"	"Syracuse, NY"
"National Socialist Movement"	"Neo-Nazi"	"neo-nazi"	"Syracuse"	"New York"	43.04	-76.14	"(43.04, -76.14)"	"Syracuse, NY"
"Committee for Open Debate on the Holocaust"	"Holocaust Denial"	"holocaust-denial"	"Drums"	"Pennsylvania"	41.033165	-76.004373	"(41.033165, -76.004373)"	"Syracuse, NY"
"European American Action Coalition"	"White Nationalist"	"white-nationalist"	"Pittston"	"Pennsylvania"	41.325913	-75.78936	"(41.325913, -75.78936)"	"Syracuse, NY"
"Council of Conservative Citizens"	"White Nationalist"	"white-nationalist"	"Montgomery"	"Alabama"	32.398931	-86.322463	"(32.398931, -86.322463)"	"Muskegon, MI"
"TC Family (Traverse City Family)"	"Anti-LGBT"	"anti-lgbt"	"Traverse City"	"Michigan"	44.763056	-85.620631	"(44.763056, -85.620631)"	"Muskegon, MI"
"Tennessee Freedom Coalition"	"Anti-Muslim"	"anti-muslim"	"Nashville"	"Tennessee"	36.095758	-86.82262	"(36.095758, -86.82262)"	"Muskegon, MI"
"United Klans of America"	"Ku Klux Klan"	"kkk"	"Anniston"	"Alabama"	33.659825	-85.831631	"(33.659825, -85.831631)"	"Muskegon, MI"
"Southern Mountain Knights of the Ku Klux Klan"	"Ku Klux Klan"	"kkk"	"Franklin"	"Tennessee"	35.92	-86.86	"(35.92, -86.86)"	"Muskegon, MI"
"Original Knight Riders Knights of the Ku Klux Klan"	"Ku Klux Klan"	"kkk"	"Nashville"	"Tennessee"	36.15238	-86.789388	"(36.15238, -86.789388)"	"Muskegon, MI"
"Crew 38"	"Racist Skinhead"	"racist-skinhead"	"Huntsville"	"Alabama"	34.730891	-86.58	"(34.730891, -86.58)"	"Muskegon, MI"
"Political Islam"	"Anti-Muslim"	"anti-muslim"	"Nashville"	"Tennessee"	36.159543	-86.790958	"(36.159543, -86.790958)"	"Muskegon, MI"
"Creativity Alliance"	"Neo-Nazi"	"neo-nazi"	""	"Tennessee"	35.509872	-86.58	"(35.509872, -86.58)"	"Muskegon, MI"
"White Aryan Resistance"	"Neo-Nazi"	"neo-nazi"	"Warsaw"	"Indiana"	41.23	-85.85	"(41.23, -85.85)"	"Muskegon, MI"
"True Invisible Empire Knights"	"Ku Klux Klan"	"kkk"	"Elkmont"	"Alabama"	34.928974	-86.973895	"(34.928974, -86.973895)"	"Muskegon, MI"
"Vinlanders Indiana"	"Racist Skinhead"	"racist-skinhead"	"Knightstown"	"Indiana"	39.79	-85.52	"(39.79, -85.52)"	"Muskegon, MI"
"American Vikings"	"White Nationalist"	"white-nationalist"	"Knightstown"	"Indiana"	39.791127	-85.52	"(39.791127, -85.52)"	"Muskegon, MI"
"Loyal White Knights of the Ku Klux Klan"	"Ku Klux Klan"	"kkk"	"Kokomo"	"Indiana"	40.535199	-86.18	"(40.535199, -86.18)"	"Muskegon, MI"
"Aryan Strikeforce"	"Racist Skinhead"	"racist-skinhead"	""	"Indiana"	40.263547	-86.13	"(40.263547, -86.13)"	"Muskegon, MI"
"Nation of Islam"	"Black Separatist"	"black-separatist"	"Birmingham"	"Alabama"	33.551839	-86.816757	"(33.551839, -86.816757)"	"Muskegon, MI"
"Aryan Nations OH"	"Neo-Nazi"	"neo-nazi"	""	"Michigan"	44.31	-85.6	"(44.31, -85.6)"	"Muskegon, MI"
"United Klans of America"	"Ku Klux Klan"	"kkk"	"Ashland"	"Alabama"	33.273725	-85.836074	"(33.273725, -85.836074)"	"Muskegon, MI"
"Traditionalist American Knights of the Ku Klux Klan"	"Ku Klux Klan"	"kkk"	"Prattville"	"Alabama"	32.475494	-86.428853	"(32.475494, -86.428853)"	"Muskegon, MI"
"Gallows Tree Wotansvolk Alliance"	"Neo-Nazi"	"neo-nazi"	""	"Indiana"	40.26	-86.13	"(40.26, -86.13)"	"Muskegon, MI"
"League of the South"	"Neo-Confederate"	"neo-confederate"	"Wetumpka"	"Alabama"	32.553744	-86.211912	"(32.553744, -86.211912)"	"Muskegon, MI"
"Nation of Islam"	"Black Separatist"	"black-separatist"	"Grand Rapids"	"Michigan"	42.920478	-85.647216	"(42.920478, -85.647216)"	"Muskegon, MI"
"Council of Conservative Citizens"	"White Nationalist"	"white-nationalist"	"Birmingham"	"Alabama"	33.65	-86.68	"(33.65, -86.68)"	"Muskegon, MI"
"Confederate Hammerskins"	"Racist Skinhead"	"racist-skinhead"	"Nashville"	"Tennessee"	36.16	-86.78	"(36.16, -86.78)"	"Muskegon, MI"
"Protestant White Nationalist Party of Kentucky/Uncreated Light"	"White Nationalist"	"white-nationalist"	"Louisville"	"Kentucky"	38.25	-85.75	"(38.25, -85.75)"	"Muskegon, MI"
"Council of Conservative Citizens"	"White Nationalist"	"white-nationalist"	"Pulaski"	"Tennessee"	35.222318	-87.022444	"(35.222318, -87.022444)"	"Muskegon, MI"
"Culture Wars/Fidelity Press"	"Radical Traditional Catholicism"	"rad-trad-catholicism"	"South Bend"	"Indiana"	41.689403	-86.252357	"(41.689403, -86.252357)"	"Muskegon, MI"
"Loyal White Knights of the Ku Klux Klan"	"Ku Klux Klan"	"kkk"	""	"Tennessee"	35.898723	-86.962408	"(35.898723, -86.962408)"	"Muskegon, MI"
"Traditionalist Youth Network at Indiana University"	"White Nationalist"	"white-nationalist"	"Bloomington"	"Indiana"	39.165325	-86.526385	"(39.165325, -86.526385)"	"Muskegon, MI"
"Crew 38"	"Racist Skinhead"	"racist-skinhead"	"Birmingham"	"Alabama"	33.52	-86.8	"(33.52, -86.8)"	"Muskegon, MI"
"Southern National Congress"	"Neo-Confederate"	"neo-confederate"	""	"Tennessee"	35.898723	-86.962408	"(35.898723, -86.962408)"	"Muskegon, MI"
"Citizen Warrior"	"Anti-Muslim"	"anti-muslim"	"Nashville"	"Tennessee"	36.17	-86.78	"(36.17, -86.78)"	"Muskegon, MI"
"Southern Mountain Knights of the Ku Klux Klan"	"Ku Klux Klan"	"kkk"	"Nashville"	"Tennessee"	36.16647	-86.783736	"(36.16647, -86.783736)"	"Muskegon, MI"
"Crew 38"	"Racist Skinhead"	"racist-skinhead"	""	"Indiana"	40.26	-86.123543	"(40.26, -86.123543)"	"Muskegon, MI"
"Tea Party Nation"	"General Hate"	"other"	"Franklin"	"Tennessee"	35.861207	-86.863581	"(35.861207, -86.863581)"	"Muskegon, MI"
"Nation of Islam"	"Black Separatist"	"black-separatist"	"Indianapolis"	"Indiana"	39.802988	-86.103918	"(39.802988, -86.103918)"	"Muskegon, MI"
"Southern National Congress"	"Neo-Confederate"	"neo-confederate"	"Wetumpka"	"Alabama"	32.543744	-86.211912	"(32.543744, -86.211912)"	"Muskegon, MI"
"Confederate Hammerskins"	"Racist Skinhead"	"racist-skinhead"	"Huntsville"	"Alabama"	34.73	-86.58	"(34.73, -86.58)"	"Muskegon, MI"
"Gallows Tree Wotansvolk Alliance"	"Neo-Nazi"	"neo-nazi"	"Grand Rapids"	"Michigan"	42.96	-85.66	"(42.96, -85.66)"	"Muskegon, MI"
"Aryan Nations OH"	"Neo-Nazi"	"neo-nazi"	""	"Tennessee"	35.51	-86.58	"(35.51, -86.58)"	"Muskegon, MI"
"National Socialist Movement"	"Neo-Nazi"	"neo-nazi"	""	"Tennessee"	35.51	-86.58	"(35.51, -86.58)"	"Muskegon, MI"
"Ku Klos Knights of the Ku Klux Klan"	"Ku Klux Klan"	"kkk"	"Kokomo"	"Indiana"	40.53	-86.18	"(40.53, -86.18)"	"Muskegon, MI"
"National Youth Front"	"White Nationalist"	"white-nationalist"	"Indianapolis"	"Indiana"	39.76	-86.15	"(39.76, -86.15)"	"Muskegon, MI"
"Conservative Citizens Foundation Inc"	"White Nationalist"	"white-nationalist"	"Saint Louis"	"Missouri"	38.630539	-90.192821	"(38.630539, -90.192821)"	"Jackson, MS"
"Southern National Congress"	"Neo-Confederate"	"neo-confederate"	""	"Mississippi"	32.80735	-89.474217	"(32.80735, -89.474217)"	"Jackson, MS"
"Aryan Nations LA"	"Neo-Nazi"	"neo-nazi"	""	"Mississippi"	32.35	-89.39	"(32.35, -89.39)"	"Jackson, MS"
"National Association for the Advancement of America"	"White Nationalist"	"white-nationalist"	"McComb"	"Mississippi"	31.16	-90.28	"(31.16, -90.28)"	"Jackson, MS"
"Council of Conservative Citizens"	"White Nationalist"	"white-nationalist"	"St. Louis"	"Missouri"	38.578783	-90.421944	"(38.578783, -90.421944)"	"Jackson, MS"
"National Socialist Movement"	"Neo-Nazi"	"neo-nazi"	""	"Mississippi"	32.358503	-89.39	"(32.358503, -89.39)"	"Jackson, MS"
"Sadistic Souls Motorcycle Club"	"Neo-Nazi"	"neo-nazi"	"Brighton"	"Illinois"	39.03	-90.14	"(39.03, -90.14)"	"Jackson, MS"
"Nation of Islam"	"Black Separatist"	"black-separatist"	"Horn Lake"	"Mississippi"	34.963116	-90.032342	"(34.963116, -90.032342)"	"Jackson, MS"
"Political Cesspool"	"White Nationalist"	"white-nationalist"	"Bartlett"	"Tennessee"	35.15	-90.05	"(35.15, -90.05)"	"Jackson, MS"
"Traditionalist American Knights of the Ku Klux Klan"	"Ku Klux Klan"	"kkk"	"Potosi"	"Missouri"	37.936438	-90.787908	"(37.936438, -90.787908)"	"Jackson, MS"
"Mississippi White Knights of the Ku Klux Klan"	"Ku Klux Klan"	"kkk"	"Bruce"	"Mississippi"	33.992055	-89.348964	"(33.992055, -89.348964)"	"Jackson, MS"
"Watchmen Bible Study Group"	"Christian Identity"	"christian-identity"	"Wappapello"	"Missouri"	36.935556	-90.270833	"(36.935556, -90.270833)"	"Jackson, MS"
"Nation Of Islam"	"Black Separatist"	"black-separatist"	"East Saint Louis"	"Illinois"	38.615721	-90.116746	"(38.615721, -90.116746)"	"Jackson, MS"
"Christian Defense League"	"Neo-Nazi"	"neo-nazi"	"Mandeville"	"Louisiana"	30.36469	-90.08779	"(30.36469, -90.08779)"	"Jackson, MS"
"Pilgrims Covenant Church"	"Anti-LGBT"	"anti-lgbt"	"Monroe"	"Wisconsin"	42.601119	-89.638453	"(42.601119, -89.638453)"	"Jackson, MS"
"Nation of Islam"	"Black Separatist"	"black-separatist"	"St. Louis"	"Missouri"	38.708457	-90.250618	"(38.708457, -90.250618)"	"Jackson, MS"
"Sadistic Souls Motorcycle Club"	"Neo-Nazi"	"neo-nazi"	"Mercer"	"Wisconsin"	46.16	-90.06	"(46.16, -90.06)"	"Jackson, MS"
"Invictus Books"	"General Hate"	"other"	"Wentzville"	"Missouri"	38.815492	-90.873918	"(38.815492, -90.873918)"	"Jackson, MS"
"Council of Conservative Citizens"	"White Nationalist"	"white-nationalist"	"Calhoun City"	"Mississippi"	33.855391	-89.311461	"(33.855391, -89.311461)"	"Jackson, MS"
"Loyal White Knights of the Ku Klux Klan"	"Ku Klux Klan"	"kkk"	""	"Illinois"	40.695773	-89.582474	"(40.695773, -89.582474)"	"Jackson, MS"
"Council of Conservative Citizens"	"White Nationalist"	"white-nationalist"	"Jackson"	"Mississippi"	32.350399	-90.152946	"(32.350399, -90.152946)"	"Jackson, MS"
"Sadistic Souls Skinheads"	"Racist Skinhead"	"racist-skinhead"	"Wood River"	"Illinois"	38.86	-90.09	"(38.86, -90.09)"	"Jackson, MS"
"Nation of Islam"	"Black Separatist"	"black-separatist"	"East Saint Louis"	"Illinois"	38.605721	-90.116746	"(38.605721, -90.116746)"	"Jackson, MS"
"Nation of Islam"	"Black Separatist"	"black-separatist"	"Southaven"	"Mississippi"	34.99183	-90.012957	"(34.99183, -90.012957)"	"Jackson, MS"
"Loyal White Knights of the Ku Klux Klan"	"Ku Klux Klan"	"kkk"	""	"Mississippi"	32.412414	-90.290181	"(32.412414, -90.290181)"	"Jackson, MS"
"Nation of Islam"	"Black Separatist"	"black-separatist"	"Memphis"	"Tennessee"	35.133211	-90.032478	"(35.133211, -90.032478)"	"Jackson, MS"
"Aryan Strikeforce"	"Racist Skinhead"	"racist-skinhead"	""	"Illinois"	40.63	-89.39	"(40.63, -89.39)"	"Jackson, MS"
"New Black Panther Party"	"Black Separatist"	"black-separatist"	"St. Louis"	"Missouri"	38.629185	-90.217431	"(38.629185, -90.217431)"	"Jackson, MS"
"International Keystone Knights of the Ku Klux Klan"	"Ku Klux Klan"	"kkk"	"Vanndale"	"Arkansas"	35.313526	-90.773943	"(35.313526, -90.773943)"	"Jackson, MS"
"Council of Conservative Citizens"	"White Nationalist"	"white-nationalist"	"St. Louis"	"Missouri"	38.568783	-90.421944	"(38.568783, -90.421944)"	"Jackson, MS"
"Nation of Islam"	"Black Separatist"	"black-separatist"	"Peoria"	"Illinois"	40.66965	-89.639286	"(40.66965, -89.639286)"	"Jackson, MS"
"Crew 38"	"Racist Skinhead"	"racist-skinhead"	""	"Mississippi"	32.35	-89.396095	"(32.35, -89.396095)"	"Jackson, MS"
"Nation of Islam"	"Black Separatist"	"black-separatist"	"New Orleans"	"Louisiana"	30.013167	-90.020895	"(30.013167, -90.020895)"	"Jackson, MS"
"Divine International Church of the Web"	"Christian Identity"	"christian-identity"	"Morton"	"Illinois"	40.61	-89.45	"(40.61, -89.45)"	"Jackson, MS"
"Ku Klos Knights of the Ku Klux Klan"	"Ku Klux Klan"	"kkk"	"Memphis"	"Tennessee"	35.236823	-90.018655	"(35.236823, -90.018655)"	"Jackson, MS"
"Council of Conservative Citizens"	"White Nationalist"	"white-nationalist"	"Vaiden"	"Mississippi"	33.33207	-89.741193	"(33.33207, -89.741193)"	"Jackson, MS"
"Die Auserwahlten"	"Racist Skinhead"	"racist-skinhead"	"Brownsfield"	"Louisiana"	30.69	-90.97	"(30.69, -90.97)"	"Jackson, MS"
"Nation of Islam"	"Black Separatist"	"black-separatist"	"Jackson"	"Mississippi"	32.304923	-90.201023	"(32.304923, -90.201023)"	"Jackson, MS"
"Nationalist Movement"	"White Nationalist"	"white-nationalist"	"Learned"	"Mississippi"	32.19	-90.54	"(32.19, -90.54)"	"Jackson, MS"
"United Dixie White Knights Ku Klux Klan"	"Ku Klux Klan"	"kkk"	"Jackson"	"Mississippi"	32.422414	-90.290181	"(32.422414, -90.290181)"	"Jackson, MS"
"South Africa Project"	"White Nationalist"	"white-nationalist"	"Mandeville"	"Louisiana"	30.37469	-90.08779	"(30.37469, -90.08779)"	"Jackson, MS"
"White Boy Society"	"White Nationalist"	"white-nationalist"	""	"Illinois"	40.633757	-89.39	"(40.633757, -89.39)"	"Jackson, MS"
"TC Family (Traverse City Family)"	"Anti-LGBT"	"anti-lgbt"	"Traverse City"	"Michigan"	44.763056	-85.620631	"(44.763056, -85.620631)"	"Muncie, IN"
"United Klans of America"	"Ku Klux Klan"	"kkk"	"Anniston"	"Alabama"	33.659825	-85.831631	"(33.659825, -85.831631)"	"Muncie, IN"
"American Front"	"Racist Skinhead"	"racist-skinhead"	"Lynn Haven"	"Florida"	30.24	-85.64	"(30.24, -85.64)"	"Muncie, IN"
"Supreme White Alliance"	"Racist Skinhead"	"racist-skinhead"	"Frankfort"	"Kentucky"	38.248101	-84.898477	"(38.248101, -84.898477)"	"Muncie, IN"
"White Aryan Resistance"	"Neo-Nazi"	"neo-nazi"	"Warsaw"	"Indiana"	41.23	-85.85	"(41.23, -85.85)"	"Muncie, IN"
"Occidental Dissent"	"White Nationalist"	"white-nationalist"	"Eufaula"	"Alabama"	31.979345	-85.168674	"(31.979345, -85.168674)"	"Muncie, IN"
"Vinlanders Indiana"	"Racist Skinhead"	"racist-skinhead"	"Knightstown"	"Indiana"	39.79	-85.52	"(39.79, -85.52)"	"Muncie, IN"
"Council of Conservative Citizens"	"White Nationalist"	"white-nationalist"	"Eufaula"	"Alabama"	31.969345	-85.168674	"(31.969345, -85.168674)"	"Muncie, IN"
"American Vikings"	"White Nationalist"	"white-nationalist"	"Knightstown"	"Indiana"	39.791127	-85.52	"(39.791127, -85.52)"	"Muncie, IN"
"Loyal White Knights of the Ku Klux Klan"	"Ku Klux Klan"	"kkk"	"Kokomo"	"Indiana"	40.535199	-86.18	"(40.535199, -86.18)"	"Muncie, IN"
"Aryan Strikeforce"	"Racist Skinhead"	"racist-skinhead"	""	"Indiana"	40.263547	-86.13	"(40.263547, -86.13)"	"Muncie, IN"
"Trinity White Knights of the Ku Klux Klan"	"Ku Klux Klan"	"kkk"	"Georgetown"	"Kentucky"	38.2	-84.55	"(38.2, -84.55)"	"Muncie, IN"
"Aryan Nations OH"	"Neo-Nazi"	"neo-nazi"	""	"Michigan"	44.31	-85.6	"(44.31, -85.6)"	"Muncie, IN"
"Social Contract Press"	"Anti-Immigrant"	"anti-immigrant"	"Petoskey"	"Michigan"	45.373342	-84.955329	"(45.373342, -84.955329)"	"Muncie, IN"
"United Klans of America"	"Ku Klux Klan"	"kkk"	"Ashland"	"Alabama"	33.273725	-85.836074	"(33.273725, -85.836074)"	"Muncie, IN"
"WTM Enterprises"	"White Nationalist"	"white-nationalist"	"Roanoke"	"Indiana"	40.962546	-85.373307	"(40.962546, -85.373307)"	"Muncie, IN"
"Heathens Motorcycle Club"	"Neo-Nazi"	"neo-nazi"	"Rome"	"Georgia"	34.257038	-85.164672	"(34.257038, -85.164672)"	"Muncie, IN"
"Crew 38"	"Racist Skinhead"	"racist-skinhead"	"Dallas"	"Georgia"	33.92	-84.84	"(33.92, -84.84)"	"Muncie, IN"
"American Vision"	"Anti-LGBT"	"anti-lgbt"	"Powder Springs"	"Georgia"	33.859549	-84.683824	"(33.859549, -84.683824)"	"Muncie, IN"
"Gallows Tree Wotansvolk Alliance"	"Neo-Nazi"	"neo-nazi"	""	"Indiana"	40.26	-86.13	"(40.26, -86.13)"	"Muncie, IN"
"Original Knight Riders Knights of the Ku Klux Klan"	"Ku Klux Klan"	"kkk"	"Frankfort"	"Kentucky"	38.200905	-84.873283	"(38.200905, -84.873283)"	"Muncie, IN"
"Nation of Islam"	"Black Separatist"	"black-separatist"	"Grand Rapids"	"Michigan"	42.920478	-85.647216	"(42.920478, -85.647216)"	"Muncie, IN"
"Loyal White Knights of the Ku Klux Klan"	"Ku Klux Klan"	"kkk"	""	"Kentucky"	38.258101	-84.898477	"(38.258101, -84.898477)"	"Muncie, IN"
"Protestant White Nationalist Party of Kentucky/Uncreated Light"	"White Nationalist"	"white-nationalist"	"Louisville"	"Kentucky"	38.25	-85.75	"(38.25, -85.75)"	"Muncie, IN"
"Culture Wars/Fidelity Press"	"Radical Traditional Catholicism"	"rad-trad-catholicism"	"South Bend"	"Indiana"	41.689403	-86.252357	"(41.689403, -86.252357)"	"Muncie, IN"
"Fraternal Order of the Cross"	"Ku Klux Klan"	"kkk"	"Madison"	"Indiana"	38.735893	-85.379957	"(38.735893, -85.379957)"	"Muncie, IN"
"Red October"	"White Nationalist"	"white-nationalist"	"Hamilton"	"Ohio"	39.3995	-84.561335	"(39.3995, -84.561335)"	"Muncie, IN"
"Christ or Chaos"	"Radical Traditional Catholicism"	"rad-trad-catholicism"	"West Chester"	"Ohio"	39.328237	-84.553667	"(39.328237, -84.553667)"	"Muncie, IN"
"Crew 38"	"Racist Skinhead"	"racist-skinhead"	""	"Indiana"	40.26	-86.123543	"(40.26, -86.123543)"	"Muncie, IN"
"Fellowship of God's Covenant People"	"Christian Identity"	"christian-identity"	"Union"	"Kentucky"	38.945895	-84.680501	"(38.945895, -84.680501)"	"Muncie, IN"
"Nation of Islam"	"Black Separatist"	"black-separatist"	"Indianapolis"	"Indiana"	39.802988	-86.103918	"(39.802988, -86.103918)"	"Muncie, IN"
"Sons of Thundr (Faith Baptist Church)"	"Anti-LGBT"	"anti-lgbt"	"Luthersville"	"Georgia"	33.21012	-84.744376	"(33.21012, -84.744376)"	"Muncie, IN"
"Gallows Tree Wotansvolk Alliance"	"Neo-Nazi"	"neo-nazi"	"Grand Rapids"	"Michigan"	42.96	-85.66	"(42.96, -85.66)"	"Muncie, IN"
"Ku Klos Knights of the Ku Klux Klan"	"Ku Klux Klan"	"kkk"	"Kokomo"	"Indiana"	40.53	-86.18	"(40.53, -86.18)"	"Muncie, IN"
"National Youth Front"	"White Nationalist"	"white-nationalist"	"Indianapolis"	"Indiana"	39.76	-86.15	"(39.76, -86.15)"	"Muncie, IN"
"Nation of Islam"	"Black Separatist"	"black-separatist"	"Chattanooga"	"Tennessee"	35.001011	-85.316206	"(35.001011, -85.316206)"	"Muncie, IN"
"Conservative Citizens Foundation Inc"	"White Nationalist"	"white-nationalist"	"Saint Louis"	"Missouri"	38.630539	-90.192821	"(38.630539, -90.192821)"	"Springfield, IL"
"Southern National Congress"	"Neo-Confederate"	"neo-confederate"	""	"Mississippi"	32.80735	-89.474217	"(32.80735, -89.474217)"	"Springfield, IL"
"Aryan Nations LA"	"Neo-Nazi"	"neo-nazi"	""	"Mississippi"	32.35	-89.39	"(32.35, -89.39)"	"Springfield, IL"
"National Association for the Advancement of America"	"White Nationalist"	"white-nationalist"	"McComb"	"Mississippi"	31.16	-90.28	"(31.16, -90.28)"	"Springfield, IL"
"Nation of Islam"	"Black Separatist"	"black-separatist"	"Rockford"	"Illinois"	42.247361	-89.080022	"(42.247361, -89.080022)"	"Springfield, IL"
"White Boy Society"	"White Nationalist"	"white-nationalist"	""	"Wisconsin"	43.78324	-88.78	"(43.78324, -88.78)"	"Springfield, IL"
"Council of Conservative Citizens"	"White Nationalist"	"white-nationalist"	"St. Louis"	"Missouri"	38.578783	-90.421944	"(38.578783, -90.421944)"	"Springfield, IL"
"League of the South"	"Neo-Confederate"	"neo-confederate"	"Collinsville"	"Mississippi"	32.497918	-88.845883	"(32.497918, -88.845883)"	"Springfield, IL"
"National Socialist Movement"	"Neo-Nazi"	"neo-nazi"	""	"Mississippi"	32.358503	-89.39	"(32.358503, -89.39)"	"Springfield, IL"
"Sadistic Souls Motorcycle Club"	"Neo-Nazi"	"neo-nazi"	"Brighton"	"Illinois"	39.03	-90.14	"(39.03, -90.14)"	"Springfield, IL"
"Nation of Islam"	"Black Separatist"	"black-separatist"	"Horn Lake"	"Mississippi"	34.963116	-90.032342	"(34.963116, -90.032342)"	"Springfield, IL"
"Council of Conservative Citizens"	"White Nationalist"	"white-nationalist"	"Walthall"	"Mississippi"	33.60146	-89.272852	"(33.60146, -89.272852)"	"Springfield, IL"
"Political Cesspool"	"White Nationalist"	"white-nationalist"	"Bartlett"	"Tennessee"	35.15	-90.05	"(35.15, -90.05)"	"Springfield, IL"
"Mississippi White Knights of the Ku Klux Klan"	"Ku Klux Klan"	"kkk"	"Bruce"	"Mississippi"	33.992055	-89.348964	"(33.992055, -89.348964)"	"Springfield, IL"
"Watchmen Bible Study Group"	"Christian Identity"	"christian-identity"	"Wappapello"	"Missouri"	36.935556	-90.270833	"(36.935556, -90.270833)"	"Springfield, IL"
"Nation Of Islam"	"Black Separatist"	"black-separatist"	"East Saint Louis"	"Illinois"	38.615721	-90.116746	"(38.615721, -90.116746)"	"Springfield, IL"
"Creativity Movement"	"Neo-Nazi"	"neo-nazi"	"Bloomington"	"Illinois"	40.48	-88.99	"(40.48, -88.99)"	"Springfield, IL"
"Christian Defense League"	"Neo-Nazi"	"neo-nazi"	"Mandeville"	"Louisiana"	30.36469	-90.08779	"(30.36469, -90.08779)"	"Springfield, IL"
"Pilgrims Covenant Church"	"Anti-LGBT"	"anti-lgbt"	"Monroe"	"Wisconsin"	42.601119	-89.638453	"(42.601119, -89.638453)"	"Springfield, IL"
"Nation of Islam"	"Black Separatist"	"black-separatist"	"St. Louis"	"Missouri"	38.708457	-90.250618	"(38.708457, -90.250618)"	"Springfield, IL"
"Sadistic Souls Motorcycle Club"	"Neo-Nazi"	"neo-nazi"	"Mercer"	"Wisconsin"	46.16	-90.06	"(46.16, -90.06)"	"Springfield, IL"
"Council of Conservative Citizens"	"White Nationalist"	"white-nationalist"	"Calhoun City"	"Mississippi"	33.855391	-89.311461	"(33.855391, -89.311461)"	"Springfield, IL"
"Loyal White Knights of the Ku Klux Klan"	"Ku Klux Klan"	"kkk"	""	"Illinois"	40.695773	-89.582474	"(40.695773, -89.582474)"	"Springfield, IL"
"Council of Conservative Citizens"	"White Nationalist"	"white-nationalist"	"Jackson"	"Mississippi"	32.350399	-90.152946	"(32.350399, -90.152946)"	"Springfield, IL"
"Sadistic Souls Skinheads"	"Racist Skinhead"	"racist-skinhead"	"Wood River"	"Illinois"	38.86	-90.09	"(38.86, -90.09)"	"Springfield, IL"
"Nation of Islam"	"Black Separatist"	"black-separatist"	"East Saint Louis"	"Illinois"	38.605721	-90.116746	"(38.605721, -90.116746)"	"Springfield, IL"
"Nation of Islam"	"Black Separatist"	"black-separatist"	"Southaven"	"Mississippi"	34.99183	-90.012957	"(34.99183, -90.012957)"	"Springfield, IL"
"Loyal White Knights of the Ku Klux Klan"	"Ku Klux Klan"	"kkk"	""	"Mississippi"	32.412414	-90.290181	"(32.412414, -90.290181)"	"Springfield, IL"
