".id"	"Name"	"Ideology"	"Icon"	"City"	"State"	"Latitude"	"Longitude"	"Location"	"city"
"1"	"Alliance for Catholic Tradition"	"Radical Traditional Catholicism"	"rad-trad-catholicism"	"Pleasant Unity"	"Pennsylvania"	40.240555	-79.457731	"(40.240555, -79.457731)"	"Buffalo, NY"
"1"	"Racial Nationalist Party of America"	"White Nationalist"	"white-nationalist"	"Lockport"	"New York"	43.172146	-78.683823	"(43.172146, -78.683823)"	"Buffalo, NY"
"1"	"Catholic Family News/Catholic Family Ministries Inc."	"Radical Traditional Catholicism"	"rad-trad-catholicism"	"Niagara Falls"	"New York"	43.086335	-79.059163	"(43.086335, -79.059163)"	"Buffalo, NY"
"1"	"Nation of Islam"	"Black Separatist"	"black-separatist"	"Buffalo"	"New York"	42.909791	-78.824274	"(42.909791, -78.824274)"	"Buffalo, NY"
"1"	"Blood and Honour U.S.A."	"Racist Skinhead"	"racist-skinhead"	"Altoona"	"Pennsylvania"	40.51868	-78.394735	"(40.51868, -78.394735)"	"Buffalo, NY"
"1"	"Heritage and Destiny"	"White Nationalist"	"white-nationalist"	"Little Orleans"	"Maryland"	39.704965	-78.364742	"(39.704965, -78.364742)"	"Buffalo, NY"
"1"	"Most Holy Family Monastery"	"Radical Traditional Catholicism"	"rad-trad-catholicism"	"Fillmore"	"New York"	42.438091	-77.985067	"(42.438091, -77.985067)"	"Buffalo, NY"
"1"	"American Freedom Party"	"White Nationalist"	"white-nationalist"	"Incomplete"	"Indiana"	40.62	-79.15	"(40.62, -79.15)"	"Buffalo, NY"
"1"	"Sadistic Souls Motorcycle Club"	"Neo-Nazi"	"neo-nazi"	"Friedens"	"Pennsylvania"	40.05	-78.99	"(40.05, -78.99)"	"Buffalo, NY"
"1"	"Ku Klos Knights of the Ku Klux Klan"	"Ku Klux Klan"	"kkk"	"Oil City"	"Pennsylvania"	41.433948	-79.706441	"(41.433948, -79.706441)"	"Buffalo, NY"
"2"	"American Nazi Party"	"Neo-Nazi"	"neo-nazi"	""	"West Virginia"	38.312047	-81.482819	"(38.312047, -81.482819)"	"Cleveland, OH"
"2"	"Blood and Honour U.S.A."	"Racist Skinhead"	"racist-skinhead"	"Salem"	"Ohio"	40.9	-80.85	"(40.9, -80.85)"	"Cleveland, OH"
"2"	"Original Knight Riders Knights of the Ku Klux Klan (W. Va.)"	"Ku Klux Klan"	"kkk"	"Charleston"	"Virginia"	38.337969	-81.6107	"(38.337969, -81.6107)"	"Cleveland, OH"
"2"	"Ku Klos Knights of the Ku Klux Klan"	"Ku Klux Klan"	"kkk"	"Lenoir"	"North Carolina"	35.914019	-81.538984	"(35.914019, -81.538984)"	"Cleveland, OH"
"2"	"National Alliance"	"Neo-Nazi"	"neo-nazi"	"Parma"	"Ohio"	41.391641	-81.702104	"(41.391641, -81.702104)"	"Cleveland, OH"
"2"	"Original Knight Riders Knights of the Ku Klux Klan (W. Va.)"	"Ku Klux Klan"	"kkk"	"Beckley"	"West Virginia"	37.799995	-81.175906	"(37.799995, -81.175906)"	"Cleveland, OH"
"2"	"Pass the Salt Ministries"	"Anti-LGBT"	"anti-lgbt"	"Hebron"	"Ohio"	39.96	-82.49	"(39.96, -82.49)"	"Cleveland, OH"
"2"	"National Alliance"	"Neo-Nazi"	"neo-nazi"	"Mountain City"	"Tennessee"	36.47	-81.8	"(36.47, -81.8)"	"Cleveland, OH"
"2"	"Geauga Constitutional Council"	"General Hate"	"other"	"Mayfield Heights"	"Ohio"	41.525337	-81.438772	"(41.525337, -81.438772)"	"Cleveland, OH"
"2"	"National Socialist Freedom Movement"	"Neo-Nazi"	"neo-nazi"	""	"Ohio"	41.044038	-81.521241	"(41.044038, -81.521241)"	"Cleveland, OH"
"2"	"Ku Klos Knights of the Ku Klux Klan"	"Ku Klux Klan"	"kkk"	"Butler"	"Tennessee"	36.318346	-81.975299	"(36.318346, -81.975299)"	"Cleveland, OH"
"3"	"Sadistic Souls Motorcycle Club"	"Neo-Nazi"	"neo-nazi"	"Crestline"	"Ohio"	40.78	-82.73	"(40.78, -82.73)"	"Columbus, OH"
"3"	"Advanced White Society"	"White Nationalist"	"white-nationalist"	"Delaware"	"Delaware"	40.298672	-83.067965	"(40.298672, -83.067965)"	"Columbus, OH"
"3"	"Original Knight Riders Knights of the Ku Klux Klan"	"Ku Klux Klan"	"kkk"	"Columbus"	"Ohio"	39.96026	-83.00928	"(39.96026, -83.00928)"	"Columbus, OH"
"3"	"Loyal White Knights of the Ku Klux Klan"	"Ku Klux Klan"	"kkk"	""	"Ohio"	39.96026	-83.00928	"(39.96026, -83.00928)"	"Columbus, OH"
"3"	"Nation of Islam"	"Black Separatist"	"black-separatist"	"Detroit"	"Michigan"	42.399173	-83.159108	"(42.399173, -83.159108)"	"Columbus, OH"
"3"	"NSM88 Records"	"Racist Music"	"racist-music"	"Detroit"	"Michigan"	42.33	-83.04	"(42.33, -83.04)"	"Columbus, OH"
"3"	"Council of Conservative Citizens"	"White Nationalist"	"white-nationalist"	"Kingsport"	"Tennessee"	36.54939	-82.562369	"(36.54939, -82.562369)"	"Columbus, OH"
"3"	"All Eyes on Egypt Bookstore"	"Black Separatist"	"black-separatist"	"Milledgeville"	"Georgia"	33.06	-83.21	"(33.06, -83.21)"	"Columbus, OH"
"3"	"The Daily Stormer"	"White Nationalist"	"white-nationalist"	"Worthington"	"Ohio"	40.1	-83.01	"(40.1, -83.01)"	"Columbus, OH"
"3"	"National Socialist Movement"	"Neo-Nazi"	"neo-nazi"	"Toledo"	"Ohio"	41.66	-83.55	"(41.66, -83.55)"	"Columbus, OH"
"3"	"Vinlanders Ohio"	"Racist Skinhead"	"racist-skinhead"	""	"Ohio"	40.103832	-83.030024	"(40.103832, -83.030024)"	"Columbus, OH"
"3"	"American Nazi Party"	"Neo-Nazi"	"neo-nazi"	"Westland"	"Michigan"	42.335811	-83.38428	"(42.335811, -83.38428)"	"Columbus, OH"
"3"	"ISD Records"	"Racist Music"	"racist-music"	"Lancaster"	"Ohio"	39.713675	-82.599329	"(39.713675, -82.599329)"	"Columbus, OH"
"3"	"Southern National Congress"	"Neo-Confederate"	"neo-confederate"	"Travelers Rest"	"South Carolina"	34.967616	-82.443454	"(34.967616, -82.443454)"	"Columbus, OH"
"3"	"Mission: America"	"Anti-LGBT"	"anti-lgbt"	"Columbus"	"Ohio"	39.955692	-82.934021	"(39.955692, -82.934021)"	"Columbus, OH"
"3"	"Pass the Salt Ministries"	"Anti-LGBT"	"anti-lgbt"	"Hebron"	"Ohio"	39.96	-82.49	"(39.96, -82.49)"	"Columbus, OH"
"3"	"Ku Klos Knights of the Ku Klux Klan"	"Ku Klux Klan"	"kkk"	"Kingsport"	"Tennessee"	36.534534	-82.486105	"(36.534534, -82.486105)"	"Columbus, OH"
"3"	"American Nazi Party"	"Neo-Nazi"	"neo-nazi"	""	"Ohio"	40.103832	-83.020024	"(40.103832, -83.020024)"	"Columbus, OH"
"3"	"Supreme White Alliance"	"Racist Skinhead"	"racist-skinhead"	"Columbus"	"Ohio"	40.113832	-83.020024	"(40.113832, -83.020024)"	"Columbus, OH"
"3"	"Dixie Republic"	"Neo-Confederate"	"neo-confederate"	"Travelers Rest"	"South Carolina"	34.977616	-82.443454	"(34.977616, -82.443454)"	"Columbus, OH"
"3"	"NS Publications"	"Neo-Nazi"	"neo-nazi"	"Wyandotte"	"Michigan"	42.214206	-83.149923	"(42.214206, -83.149923)"	"Columbus, OH"
"3"	"Non-Universal Teaching Ministries"	"Christian Identity"	"christian-identity"	"Fostoria"	"Ohio"	41.156998	-83.41687	"(41.156998, -83.41687)"	"Columbus, OH"
"3"	"Nation of Islam"	"Black Separatist"	"black-separatist"	"Columbus"	"Ohio"	39.970594	-82.968973	"(39.970594, -82.968973)"	"Columbus, OH"
"3"	"National Socialist Movement"	"Neo-Nazi"	"neo-nazi"	"Detroit"	"Michigan"	42.401041	-82.998534	"(42.401041, -82.998534)"	"Columbus, OH"
"3"	"White Rabbit Radio"	"White Nationalist"	"white-nationalist"	"Dearborn Heights"	"Michigan"	42.277306	-83.263981	"(42.277306, -83.263981)"	"Columbus, OH"
"3"	"Cen_ter for the Advance_ment of Occi_den_tal Cul_ture (CAOC)"	"White Nationalist"	"white-nationalist"	"Highland Township"	"Michigan"	42.666503	-83.613557	"(42.666503, -83.613557)"	"Columbus, OH"
"3"	"Aryan Strikeforce"	"Racist Skinhead"	"racist-skinhead"	""	"Ohio"	40.41	-82.9	"(40.41, -82.9)"	"Columbus, OH"
"3"	"Ku Klos Knights of the Ku Klux Klan"	"Ku Klux Klan"	"kkk"	"Church Hill"	"Tennessee"	36.52232	-82.713492	"(36.52232, -82.713492)"	"Columbus, OH"
"3"	"Northern Hammerskins"	"Racist Skinhead"	"racist-skinhead"	"Detroit"	"Michigan"	42.333423	-83.04	"(42.333423, -83.04)"	"Columbus, OH"
"3"	"Aryan Terror Brigade"	"Racist Skinhead"	"racist-skinhead"	""	"Ohio"	40.408529	-82.9	"(40.408529, -82.9)"	"Columbus, OH"
"3"	"Advanced White Society"	"White Nationalist"	"white-nationalist"	"Statewide"	"Ohio"	40.417287	-82.907123	"(40.417287, -82.907123)"	"Columbus, OH"
"3"	"Aryan Nations OH"	"Neo-Nazi"	"neo-nazi"	"Bainbridge"	"Ohio"	39.22	-83.27	"(39.22, -83.27)"	"Columbus, OH"
"3"	"Society for the Practical Establishment and Perpetuation of the Ten Commandments"	"General Hate"	"other"	"Eatonton"	"Georgia"	33.326799	-83.388496	"(33.326799, -83.388496)"	"Columbus, OH"
"3"	"Southern Mountain Knights of the Ku Klux Klan"	"Ku Klux Klan"	"kkk"	"Harrogate"	"Tennessee"	36.58	-83.65	"(36.58, -83.65)"	"Columbus, OH"
"4"	"Sadistic Souls Motorcycle Club"	"Neo-Nazi"	"neo-nazi"	"Crestline"	"Ohio"	40.78	-82.73	"(40.78, -82.73)"	"Detroit, MI"
"4"	"Advanced White Society"	"White Nationalist"	"white-nationalist"	"Delaware"	"Delaware"	40.298672	-83.067965	"(40.298672, -83.067965)"	"Detroit, MI"
"4"	"Original Knight Riders Knights of the Ku Klux Klan"	"Ku Klux Klan"	"kkk"	"Columbus"	"Ohio"	39.96026	-83.00928	"(39.96026, -83.00928)"	"Detroit, MI"
"4"	"Loyal White Knights of the Ku Klux Klan"	"Ku Klux Klan"	"kkk"	""	"Ohio"	39.96026	-83.00928	"(39.96026, -83.00928)"	"Detroit, MI"
"4"	"Nation of Islam"	"Black Separatist"	"black-separatist"	"Detroit"	"Michigan"	42.399173	-83.159108	"(42.399173, -83.159108)"	"Detroit, MI"
"4"	"NSM88 Records"	"Racist Music"	"racist-music"	"Detroit"	"Michigan"	42.33	-83.04	"(42.33, -83.04)"	"Detroit, MI"
"4"	"The Daily Stormer"	"White Nationalist"	"white-nationalist"	"Worthington"	"Ohio"	40.1	-83.01	"(40.1, -83.01)"	"Detroit, MI"
"4"	"National Socialist Movement"	"Neo-Nazi"	"neo-nazi"	"Toledo"	"Ohio"	41.66	-83.55	"(41.66, -83.55)"	"Detroit, MI"
"4"	"Vinlanders Ohio"	"Racist Skinhead"	"racist-skinhead"	""	"Ohio"	40.103832	-83.030024	"(40.103832, -83.030024)"	"Detroit, MI"
"4"	"American Nazi Party"	"Neo-Nazi"	"neo-nazi"	"Westland"	"Michigan"	42.335811	-83.38428	"(42.335811, -83.38428)"	"Detroit, MI"
"4"	"ISD Records"	"Racist Music"	"racist-music"	"Lancaster"	"Ohio"	39.713675	-82.599329	"(39.713675, -82.599329)"	"Detroit, MI"
"4"	"Mission: America"	"Anti-LGBT"	"anti-lgbt"	"Columbus"	"Ohio"	39.955692	-82.934021	"(39.955692, -82.934021)"	"Detroit, MI"
"4"	"Pass the Salt Ministries"	"Anti-LGBT"	"anti-lgbt"	"Hebron"	"Ohio"	39.96	-82.49	"(39.96, -82.49)"	"Detroit, MI"
"4"	"American Nazi Party"	"Neo-Nazi"	"neo-nazi"	""	"Ohio"	40.103832	-83.020024	"(40.103832, -83.020024)"	"Detroit, MI"
"4"	"Supreme White Alliance"	"Racist Skinhead"	"racist-skinhead"	"Columbus"	"Ohio"	40.113832	-83.020024	"(40.113832, -83.020024)"	"Detroit, MI"
"4"	"NS Publications"	"Neo-Nazi"	"neo-nazi"	"Wyandotte"	"Michigan"	42.214206	-83.149923	"(42.214206, -83.149923)"	"Detroit, MI"
"4"	"Non-Universal Teaching Ministries"	"Christian Identity"	"christian-identity"	"Fostoria"	"Ohio"	41.156998	-83.41687	"(41.156998, -83.41687)"	"Detroit, MI"
"4"	"Nation of Islam"	"Black Separatist"	"black-separatist"	"Columbus"	"Ohio"	39.970594	-82.968973	"(39.970594, -82.968973)"	"Detroit, MI"
"4"	"National Socialist Movement"	"Neo-Nazi"	"neo-nazi"	"Detroit"	"Michigan"	42.401041	-82.998534	"(42.401041, -82.998534)"	"Detroit, MI"
"4"	"White Rabbit Radio"	"White Nationalist"	"white-nationalist"	"Dearborn Heights"	"Michigan"	42.277306	-83.263981	"(42.277306, -83.263981)"	"Detroit, MI"
"4"	"Cen_ter for the Advance_ment of Occi_den_tal Cul_ture (CAOC)"	"White Nationalist"	"white-nationalist"	"Highland Township"	"Michigan"	42.666503	-83.613557	"(42.666503, -83.613557)"	"Detroit, MI"
"4"	"Aryan Strikeforce"	"Racist Skinhead"	"racist-skinhead"	""	"Ohio"	40.41	-82.9	"(40.41, -82.9)"	"Detroit, MI"
"4"	"Ku Klos Knights of the Ku Klux Klan"	"Ku Klux Klan"	"kkk"	"Church Hill"	"Tennessee"	36.52232	-82.713492	"(36.52232, -82.713492)"	"Detroit, MI"
"4"	"Northern Hammerskins"	"Racist Skinhead"	"racist-skinhead"	"Detroit"	"Michigan"	42.333423	-83.04	"(42.333423, -83.04)"	"Detroit, MI"
"4"	"Aryan Terror Brigade"	"Racist Skinhead"	"racist-skinhead"	""	"Ohio"	40.408529	-82.9	"(40.408529, -82.9)"	"Detroit, MI"
"4"	"Advanced White Society"	"White Nationalist"	"white-nationalist"	"Statewide"	"Ohio"	40.417287	-82.907123	"(40.417287, -82.907123)"	"Detroit, MI"
"4"	"Aryan Nations OH"	"Neo-Nazi"	"neo-nazi"	"Bainbridge"	"Ohio"	39.22	-83.27	"(39.22, -83.27)"	"Detroit, MI"
"4"	"Southern Mountain Knights of the Ku Klux Klan"	"Ku Klux Klan"	"kkk"	"Harrogate"	"Tennessee"	36.58	-83.65	"(36.58, -83.65)"	"Detroit, MI"
"5"	"Israelite Church of God in Jesus Christ"	"Black Separatist"	"black-separatist"	"Kansas City"	"Missouri"	38.945066	-94.577919	"(38.945066, -94.577919)"	"Kansas City, MO"
"5"	"Artisan Publishers"	"General Hate"	"other"	"Muskogee"	"Oklahoma"	35.358953	-95.265619	"(35.358953, -95.265619)"	"Kansas City, MO"
"5"	"Creativity Movement"	"Neo-Nazi"	"neo-nazi"	"Mt Vernon"	"Texas"	33.18	-95.22	"(33.18, -95.22)"	"Kansas City, MO"
"5"	"Ku Klos Knights of the Ku Klux Klan"	"Ku Klux Klan"	"kkk"	"Kountze"	"Texas"	30.371597	-94.312411	"(30.371597, -94.312411)"	"Kansas City, MO"
"5"	"Tony Alamo Christian Ministries"	"General Hate"	"other"	"Texarkana"	"Texas"	33.425125	-94.047688	"(33.425125, -94.047688)"	"Kansas City, MO"
"5"	"Tony Alamo Christian Ministries"	"General Hate"	"other"	"Fouke"	"Arkansas"	33.261239	-93.885459	"(33.261239, -93.885459)"	"Kansas City, MO"
"5"	"League of the South"	"Neo-Confederate"	"neo-confederate"	"Logansport"	"Louisiana"	31.975445	-93.997967	"(31.975445, -93.997967)"	"Kansas City, MO"
"5"	"Nation of Islam"	"Black Separatist"	"black-separatist"	"Kansas City"	"Missouri"	38.98	-94.55	"(38.98, -94.55)"	"Kansas City, MO"
"5"	"Aryan Strikeforce"	"Racist Skinhead"	"racist-skinhead"	""	"Minnesota"	46.72	-94.68	"(46.72, -94.68)"	"Kansas City, MO"
"5"	"You Can Run But You Cannot Hide"	"Anti-LGBT"	"anti-lgbt"	"Annandale"	"Minnesota"	45.261111	-94.124166	"(45.261111, -94.124166)"	"Kansas City, MO"
"5"	"Tony Alamo Christian Ministries"	"General Hate"	"other"	"Fort Smith"	"Arkansas"	35.37046	-94.413064	"(35.37046, -94.413064)"	"Kansas City, MO"
"5"	"Original Knight Riders Knights of the Ku Klux Klan"	"Ku Klux Klan"	"kkk"	"Livingston"	"Texas"	30.711029	-94.932989	"(30.711029, -94.932989)"	"Kansas City, MO"
"5"	"Loyal White Knights of the Ku Klux Klan"	"Ku Klux Klan"	"kkk"	""	"Texas"	32.583706	-95.108835	"(32.583706, -95.108835)"	"Kansas City, MO"
"5"	"Holy Order Ministry"	"Christian Identity"	"christian-identity"	"De Kalb"	"Texas"	33.508725	-94.616319	"(33.508725, -94.616319)"	"Kansas City, MO"
"6"	"Council of Conservative Citizens"	"White Nationalist"	"white-nationalist"	"Montgomery"	"Alabama"	32.398931	-86.322463	"(32.398931, -86.322463)"	"Louisville, KY-IN"
"6"	"TC Family (Traverse City Family)"	"Anti-LGBT"	"anti-lgbt"	"Traverse City"	"Michigan"	44.763056	-85.620631	"(44.763056, -85.620631)"	"Louisville, KY-IN"
"6"	"United Klans of America"	"Ku Klux Klan"	"kkk"	"Anniston"	"Alabama"	33.659825	-85.831631	"(33.659825, -85.831631)"	"Louisville, KY-IN"
"6"	"American Front"	"Racist Skinhead"	"racist-skinhead"	"Lynn Haven"	"Florida"	30.24	-85.64	"(30.24, -85.64)"	"Louisville, KY-IN"
"6"	"Supreme White Alliance"	"Racist Skinhead"	"racist-skinhead"	"Frankfort"	"Kentucky"	38.248101	-84.898477	"(38.248101, -84.898477)"	"Louisville, KY-IN"
"6"	"Crew 38"	"Racist Skinhead"	"racist-skinhead"	"Huntsville"	"Alabama"	34.730891	-86.58	"(34.730891, -86.58)"	"Louisville, KY-IN"
"6"	"Creativity Alliance"	"Neo-Nazi"	"neo-nazi"	""	"Tennessee"	35.509872	-86.58	"(35.509872, -86.58)"	"Louisville, KY-IN"
"6"	"White Aryan Resistance"	"Neo-Nazi"	"neo-nazi"	"Warsaw"	"Indiana"	41.23	-85.85	"(41.23, -85.85)"	"Louisville, KY-IN"
"6"	"Occidental Dissent"	"White Nationalist"	"white-nationalist"	"Eufaula"	"Alabama"	31.979345	-85.168674	"(31.979345, -85.168674)"	"Louisville, KY-IN"
"6"	"Vinlanders Indiana"	"Racist Skinhead"	"racist-skinhead"	"Knightstown"	"Indiana"	39.79	-85.52	"(39.79, -85.52)"	"Louisville, KY-IN"
"6"	"Council of Conservative Citizens"	"White Nationalist"	"white-nationalist"	"Eufaula"	"Alabama"	31.969345	-85.168674	"(31.969345, -85.168674)"	"Louisville, KY-IN"
"6"	"American Vikings"	"White Nationalist"	"white-nationalist"	"Knightstown"	"Indiana"	39.791127	-85.52	"(39.791127, -85.52)"	"Louisville, KY-IN"
"6"	"Loyal White Knights of the Ku Klux Klan"	"Ku Klux Klan"	"kkk"	"Kokomo"	"Indiana"	40.535199	-86.18	"(40.535199, -86.18)"	"Louisville, KY-IN"
"6"	"Aryan Strikeforce"	"Racist Skinhead"	"racist-skinhead"	""	"Indiana"	40.263547	-86.13	"(40.263547, -86.13)"	"Louisville, KY-IN"
"6"	"Aryan Nations OH"	"Neo-Nazi"	"neo-nazi"	""	"Michigan"	44.31	-85.6	"(44.31, -85.6)"	"Louisville, KY-IN"
"6"	"United Klans of America"	"Ku Klux Klan"	"kkk"	"Ashland"	"Alabama"	33.273725	-85.836074	"(33.273725, -85.836074)"	"Louisville, KY-IN"
"6"	"WTM Enterprises"	"White Nationalist"	"white-nationalist"	"Roanoke"	"Indiana"	40.962546	-85.373307	"(40.962546, -85.373307)"	"Louisville, KY-IN"
"6"	"Heathens Motorcycle Club"	"Neo-Nazi"	"neo-nazi"	"Rome"	"Georgia"	34.257038	-85.164672	"(34.257038, -85.164672)"	"Louisville, KY-IN"
"6"	"Traditionalist American Knights of the Ku Klux Klan"	"Ku Klux Klan"	"kkk"	"Prattville"	"Alabama"	32.475494	-86.428853	"(32.475494, -86.428853)"	"Louisville, KY-IN"
"6"	"Gallows Tree Wotansvolk Alliance"	"Neo-Nazi"	"neo-nazi"	""	"Indiana"	40.26	-86.13	"(40.26, -86.13)"	"Louisville, KY-IN"
"6"	"League of the South"	"Neo-Confederate"	"neo-confederate"	"Wetumpka"	"Alabama"	32.553744	-86.211912	"(32.553744, -86.211912)"	"Louisville, KY-IN"
"6"	"Original Knight Riders Knights of the Ku Klux Klan"	"Ku Klux Klan"	"kkk"	"Frankfort"	"Kentucky"	38.200905	-84.873283	"(38.200905, -84.873283)"	"Louisville, KY-IN"
"6"	"Nation of Islam"	"Black Separatist"	"black-separatist"	"Grand Rapids"	"Michigan"	42.920478	-85.647216	"(42.920478, -85.647216)"	"Louisville, KY-IN"
"6"	"Loyal White Knights of the Ku Klux Klan"	"Ku Klux Klan"	"kkk"	""	"Kentucky"	38.258101	-84.898477	"(38.258101, -84.898477)"	"Louisville, KY-IN"
"6"	"Protestant White Nationalist Party of Kentucky/Uncreated Light"	"White Nationalist"	"white-nationalist"	"Louisville"	"Kentucky"	38.25	-85.75	"(38.25, -85.75)"	"Louisville, KY-IN"
"6"	"Culture Wars/Fidelity Press"	"Radical Traditional Catholicism"	"rad-trad-catholicism"	"South Bend"	"Indiana"	41.689403	-86.252357	"(41.689403, -86.252357)"	"Louisville, KY-IN"
"6"	"Fraternal Order of the Cross"	"Ku Klux Klan"	"kkk"	"Madison"	"Indiana"	38.735893	-85.379957	"(38.735893, -85.379957)"	"Louisville, KY-IN"
"6"	"Traditionalist Youth Network at Indiana University"	"White Nationalist"	"white-nationalist"	"Bloomington"	"Indiana"	39.165325	-86.526385	"(39.165325, -86.526385)"	"Louisville, KY-IN"
"6"	"Crew 38"	"Racist Skinhead"	"racist-skinhead"	""	"Indiana"	40.26	-86.123543	"(40.26, -86.123543)"	"Louisville, KY-IN"
"6"	"Nation of Islam"	"Black Separatist"	"black-separatist"	"Indianapolis"	"Indiana"	39.802988	-86.103918	"(39.802988, -86.103918)"	"Louisville, KY-IN"
"6"	"Southern National Congress"	"Neo-Confederate"	"neo-confederate"	"Wetumpka"	"Alabama"	32.543744	-86.211912	"(32.543744, -86.211912)"	"Louisville, KY-IN"
"6"	"Confederate Hammerskins"	"Racist Skinhead"	"racist-skinhead"	"Huntsville"	"Alabama"	34.73	-86.58	"(34.73, -86.58)"	"Louisville, KY-IN"
"6"	"Gallows Tree Wotansvolk Alliance"	"Neo-Nazi"	"neo-nazi"	"Grand Rapids"	"Michigan"	42.96	-85.66	"(42.96, -85.66)"	"Louisville, KY-IN"
"6"	"Aryan Nations OH"	"Neo-Nazi"	"neo-nazi"	""	"Tennessee"	35.51	-86.58	"(35.51, -86.58)"	"Louisville, KY-IN"
"6"	"National Socialist Movement"	"Neo-Nazi"	"neo-nazi"	""	"Tennessee"	35.51	-86.58	"(35.51, -86.58)"	"Louisville, KY-IN"
"6"	"Ku Klos Knights of the Ku Klux Klan"	"Ku Klux Klan"	"kkk"	"Kokomo"	"Indiana"	40.53	-86.18	"(40.53, -86.18)"	"Louisville, KY-IN"
"6"	"National Youth Front"	"White Nationalist"	"white-nationalist"	"Indianapolis"	"Indiana"	39.76	-86.15	"(39.76, -86.15)"	"Louisville, KY-IN"
"6"	"Nation of Islam"	"Black Separatist"	"black-separatist"	"Chattanooga"	"Tennessee"	35.001011	-85.316206	"(35.001011, -85.316206)"	"Louisville, KY-IN"
"7"	"Conservative Citizens Foundation Inc"	"White Nationalist"	"white-nationalist"	"Saint Louis"	"Missouri"	38.630539	-90.192821	"(38.630539, -90.192821)"	"Memphis, TN-AR-MS"
"7"	"Southern National Congress"	"Neo-Confederate"	"neo-confederate"	""	"Mississippi"	32.80735	-89.474217	"(32.80735, -89.474217)"	"Memphis, TN-AR-MS"
"7"	"Aryan Nations LA"	"Neo-Nazi"	"neo-nazi"	""	"Mississippi"	32.35	-89.39	"(32.35, -89.39)"	"Memphis, TN-AR-MS"
"7"	"National Association for the Advancement of America"	"White Nationalist"	"white-nationalist"	"McComb"	"Mississippi"	31.16	-90.28	"(31.16, -90.28)"	"Memphis, TN-AR-MS"
"7"	"Council of Conservative Citizens"	"White Nationalist"	"white-nationalist"	"St. Louis"	"Missouri"	38.578783	-90.421944	"(38.578783, -90.421944)"	"Memphis, TN-AR-MS"
"7"	"National Socialist Movement"	"Neo-Nazi"	"neo-nazi"	""	"Mississippi"	32.358503	-89.39	"(32.358503, -89.39)"	"Memphis, TN-AR-MS"
"7"	"Sadistic Souls Motorcycle Club"	"Neo-Nazi"	"neo-nazi"	"Brighton"	"Illinois"	39.03	-90.14	"(39.03, -90.14)"	"Memphis, TN-AR-MS"
"7"	"Nation of Islam"	"Black Separatist"	"black-separatist"	"Horn Lake"	"Mississippi"	34.963116	-90.032342	"(34.963116, -90.032342)"	"Memphis, TN-AR-MS"
"7"	"Council of Conservative Citizens"	"White Nationalist"	"white-nationalist"	"Walthall"	"Mississippi"	33.60146	-89.272852	"(33.60146, -89.272852)"	"Memphis, TN-AR-MS"
"7"	"Political Cesspool"	"White Nationalist"	"white-nationalist"	"Bartlett"	"Tennessee"	35.15	-90.05	"(35.15, -90.05)"	"Memphis, TN-AR-MS"
"7"	"Traditionalist American Knights of the Ku Klux Klan"	"Ku Klux Klan"	"kkk"	"Potosi"	"Missouri"	37.936438	-90.787908	"(37.936438, -90.787908)"	"Memphis, TN-AR-MS"
"7"	"Mississippi White Knights of the Ku Klux Klan"	"Ku Klux Klan"	"kkk"	"Bruce"	"Mississippi"	33.992055	-89.348964	"(33.992055, -89.348964)"	"Memphis, TN-AR-MS"
"7"	"Watchmen Bible Study Group"	"Christian Identity"	"christian-identity"	"Wappapello"	"Missouri"	36.935556	-90.270833	"(36.935556, -90.270833)"	"Memphis, TN-AR-MS"
"7"	"Nation Of Islam"	"Black Separatist"	"black-separatist"	"East Saint Louis"	"Illinois"	38.615721	-90.116746	"(38.615721, -90.116746)"	"Memphis, TN-AR-MS"
"7"	"Christian Defense League"	"Neo-Nazi"	"neo-nazi"	"Mandeville"	"Louisiana"	30.36469	-90.08779	"(30.36469, -90.08779)"	"Memphis, TN-AR-MS"
"7"	"Pilgrims Covenant Church"	"Anti-LGBT"	"anti-lgbt"	"Monroe"	"Wisconsin"	42.601119	-89.638453	"(42.601119, -89.638453)"	"Memphis, TN-AR-MS"
"7"	"Nation of Islam"	"Black Separatist"	"black-separatist"	"St. Louis"	"Missouri"	38.708457	-90.250618	"(38.708457, -90.250618)"	"Memphis, TN-AR-MS"
"7"	"Sadistic Souls Motorcycle Club"	"Neo-Nazi"	"neo-nazi"	"Mercer"	"Wisconsin"	46.16	-90.06	"(46.16, -90.06)"	"Memphis, TN-AR-MS"
"7"	"Invictus Books"	"General Hate"	"other"	"Wentzville"	"Missouri"	38.815492	-90.873918	"(38.815492, -90.873918)"	"Memphis, TN-AR-MS"
"7"	"Council of Conservative Citizens"	"White Nationalist"	"white-nationalist"	"Calhoun City"	"Mississippi"	33.855391	-89.311461	"(33.855391, -89.311461)"	"Memphis, TN-AR-MS"
"7"	"Loyal White Knights of the Ku Klux Klan"	"Ku Klux Klan"	"kkk"	""	"Illinois"	40.695773	-89.582474	"(40.695773, -89.582474)"	"Memphis, TN-AR-MS"
"7"	"Council of Conservative Citizens"	"White Nationalist"	"white-nationalist"	"Jackson"	"Mississippi"	32.350399	-90.152946	"(32.350399, -90.152946)"	"Memphis, TN-AR-MS"
"7"	"Sadistic Souls Skinheads"	"Racist Skinhead"	"racist-skinhead"	"Wood River"	"Illinois"	38.86	-90.09	"(38.86, -90.09)"	"Memphis, TN-AR-MS"
"7"	"Nation of Islam"	"Black Separatist"	"black-separatist"	"East Saint Louis"	"Illinois"	38.605721	-90.116746	"(38.605721, -90.116746)"	"Memphis, TN-AR-MS"
"7"	"Nation of Islam"	"Black Separatist"	"black-separatist"	"Southaven"	"Mississippi"	34.99183	-90.012957	"(34.99183, -90.012957)"	"Memphis, TN-AR-MS"
"7"	"Loyal White Knights of the Ku Klux Klan"	"Ku Klux Klan"	"kkk"	""	"Mississippi"	32.412414	-90.290181	"(32.412414, -90.290181)"	"Memphis, TN-AR-MS"
"7"	"Nation of Islam"	"Black Separatist"	"black-separatist"	"Memphis"	"Tennessee"	35.133211	-90.032478	"(35.133211, -90.032478)"	"Memphis, TN-AR-MS"
"7"	"Aryan Strikeforce"	"Racist Skinhead"	"racist-skinhead"	""	"Illinois"	40.63	-89.39	"(40.63, -89.39)"	"Memphis, TN-AR-MS"
"7"	"New Black Panther Party"	"Black Separatist"	"black-separatist"	"St. Louis"	"Missouri"	38.629185	-90.217431	"(38.629185, -90.217431)"	"Memphis, TN-AR-MS"
"7"	"International Keystone Knights of the Ku Klux Klan"	"Ku Klux Klan"	"kkk"	"Vanndale"	"Arkansas"	35.313526	-90.773943	"(35.313526, -90.773943)"	"Memphis, TN-AR-MS"
"7"	"Council of Conservative Citizens"	"White Nationalist"	"white-nationalist"	"St. Louis"	"Missouri"	38.568783	-90.421944	"(38.568783, -90.421944)"	"Memphis, TN-AR-MS"
"7"	"Nation of Islam"	"Black Separatist"	"black-separatist"	"Peoria"	"Illinois"	40.66965	-89.639286	"(40.66965, -89.639286)"	"Memphis, TN-AR-MS"
"7"	"Crew 38"	"Racist Skinhead"	"racist-skinhead"	""	"Mississippi"	32.35	-89.396095	"(32.35, -89.396095)"	"Memphis, TN-AR-MS"
"7"	"Nation of Islam"	"Black Separatist"	"black-separatist"	"New Orleans"	"Louisiana"	30.013167	-90.020895	"(30.013167, -90.020895)"	"Memphis, TN-AR-MS"
"7"	"Divine International Church of the Web"	"Christian Identity"	"christian-identity"	"Morton"	"Illinois"	40.61	-89.45	"(40.61, -89.45)"	"Memphis, TN-AR-MS"
"7"	"Ku Klos Knights of the Ku Klux Klan"	"Ku Klux Klan"	"kkk"	"Memphis"	"Tennessee"	35.236823	-90.018655	"(35.236823, -90.018655)"	"Memphis, TN-AR-MS"
"7"	"Council of Conservative Citizens"	"White Nationalist"	"white-nationalist"	"Vaiden"	"Mississippi"	33.33207	-89.741193	"(33.33207, -89.741193)"	"Memphis, TN-AR-MS"
"7"	"Nation of Islam"	"Black Separatist"	"black-separatist"	"Jackson"	"Mississippi"	32.304923	-90.201023	"(32.304923, -90.201023)"	"Memphis, TN-AR-MS"
"7"	"Nationalist Movement"	"White Nationalist"	"white-nationalist"	"Learned"	"Mississippi"	32.19	-90.54	"(32.19, -90.54)"	"Memphis, TN-AR-MS"
"7"	"United Dixie White Knights Ku Klux Klan"	"Ku Klux Klan"	"kkk"	"Jackson"	"Mississippi"	32.422414	-90.290181	"(32.422414, -90.290181)"	"Memphis, TN-AR-MS"
"7"	"South Africa Project"	"White Nationalist"	"white-nationalist"	"Mandeville"	"Louisiana"	30.37469	-90.08779	"(30.37469, -90.08779)"	"Memphis, TN-AR-MS"
"7"	"White Boy Society"	"White Nationalist"	"white-nationalist"	""	"Illinois"	40.633757	-89.39	"(40.633757, -89.39)"	"Memphis, TN-AR-MS"
"8"	"Heterosexuals Organized for a Moral Environment (H.O.M.E.)"	"Anti-LGBT"	"anti-lgbt"	"Downers Grove"	"Illinois"	41.81329	-88.021633	"(41.81329, -88.021633)"	"Milwaukee, WI"
"8"	"White Boy Society"	"White Nationalist"	"white-nationalist"	""	"Wisconsin"	43.78324	-88.78	"(43.78324, -88.78)"	"Milwaukee, WI"
"8"	"Americans for Truth About Homosexuality"	"Anti-LGBT"	"anti-lgbt"	"Naperville"	"Illinois"	41.774855	-88.148077	"(41.774855, -88.148077)"	"Milwaukee, WI"
"8"	"Mary Noel Kershaw Foundation"	"Neo-Confederate"	"neo-confederate"	"Lobelville"	"Tennessee"	35.77	-87.78	"(35.77, -87.78)"	"Milwaukee, WI"
"8"	"Stahlhelm Records"	"Racist Music"	"racist-music"	"Milwaukee"	"Wisconsin"	43.03	-87.9	"(43.03, -87.9)"	"Milwaukee, WI"
"8"	"American Freedom Party"	"White Nationalist"	"white-nationalist"	""	"Wisconsin"	42.991356	-87.943283	"(42.991356, -87.943283)"	"Milwaukee, WI"
"8"	"Imperial Klans of America Knights of the Ku Klux Klan"	"Ku Klux Klan"	"kkk"	"Dawson Springs"	"Kentucky"	37.16	-87.69	"(37.16, -87.69)"	"Milwaukee, WI"
"8"	"Samanta Roy Institute of Science and Technology"	"General Hate"	"other"	"Shawano"	"Wisconsin"	44.78	-88.6	"(44.78, -88.6)"	"Milwaukee, WI"
"8"	"American Freedom Party"	"White Nationalist"	"white-nationalist"	"Baldwyn"	"Mississippi"	34.509544	-88.633919	"(34.509544, -88.633919)"	"Milwaukee, WI"
"8"	"Loyal White Knights of the Ku Klux Klan"	"Ku Klux Klan"	"kkk"	""	"Alabama"	32.927396	-87.972681	"(32.927396, -87.972681)"	"Milwaukee, WI"
"8"	"Nation of Islam"	"Black Separatist"	"black-separatist"	"Milwaukee"	"Wisconsin"	43.127225	-87.943283	"(43.127225, -87.943283)"	"Milwaukee, WI"
"8"	"Creativity Movement"	"Neo-Nazi"	"neo-nazi"	"Mountain"	"Wisconsin"	45.18	-88.47	"(45.18, -88.47)"	"Milwaukee, WI"
"8"	"Northern Hammerskins"	"Racist Skinhead"	"racist-skinhead"	"Chicago"	"Illinois"	41.87	-87.62249	"(41.87, -87.62249)"	"Milwaukee, WI"
"8"	"New Order"	"Neo-Nazi"	"neo-nazi"	"Milwaukee"	"Wisconsin"	42.99801	-88.046089	"(42.99801, -88.046089)"	"Milwaukee, WI"
"8"	"Ku Klos Knights of the Ku Klux Klan"	"Ku Klux Klan"	"kkk"	"Monroe City"	"Indiana"	38.615325	-87.35446	"(38.615325, -87.35446)"	"Milwaukee, WI"
"8"	"Council of Conservative Citizens"	"White Nationalist"	"white-nationalist"	"Florence"	"Alabama"	34.828742	-87.648247	"(34.828742, -87.648247)"	"Milwaukee, WI"
"8"	"Pace Confederate Depot"	"Neo-Confederate"	"neo-confederate"	"Baldwyn"	"Mississippi"	34.509544	-88.635331	"(34.509544, -88.635331)"	"Milwaukee, WI"
"8"	"League of the South"	"Neo-Confederate"	"neo-confederate"	"Killen"	"Alabama"	34.862863	-87.537525	"(34.862863, -87.537525)"	"Milwaukee, WI"
"8"	"National Socialist Movement"	"Neo-Nazi"	"neo-nazi"	""	"Wisconsin"	43.78	-88.78	"(43.78, -88.78)"	"Milwaukee, WI"
"8"	"All Eyes On Egipt Bookstore"	"Black Separatist"	"black-separatist"	"Chicago"	"Illinois"	41.75	-87.58	"(41.75, -87.58)"	"Milwaukee, WI"
"8"	"Nation of Islam"	"Black Separatist"	"black-separatist"	"Chicago"	"Illinois"	41.759792	-87.564304	"(41.759792, -87.564304)"	"Milwaukee, WI"
"8"	"Illinois Family Institute"	"Anti-LGBT"	"anti-lgbt"	"Carol Stream"	"Illinois"	41.92	-88.12	"(41.92, -88.12)"	"Milwaukee, WI"
"8"	"Ecclesiastical Council for the Restoration of Covenant Israel (ECRCI)"	"Christian Identity"	"christian-identity"	"Chicago"	"Illinois"	41.85	-87.65	"(41.85, -87.65)"	"Milwaukee, WI"
"8"	"National Socialist Movement"	"Neo-Nazi"	"neo-nazi"	"Chicago"	"Illinois"	41.87	-87.62	"(41.87, -87.62)"	"Milwaukee, WI"
"8"	"Southern National Congress"	"Neo-Confederate"	"neo-confederate"	"Fruit Hill"	"Kentucky"	37	-87.36	"(37.0, -87.36)"	"Milwaukee, WI"
"8"	"American Family Association"	"Anti-LGBT"	"anti-lgbt"	"Tupelo"	"Mississippi"	34.25653	-88.724929	"(34.25653, -88.724929)"	"Milwaukee, WI"
"8"	"Confederate Patriot Voters United"	"Neo-Confederate"	"neo-confederate"	"Baldwyn"	"Mississippi"	34.505991	-88.635331	"(34.505991, -88.635331)"	"Milwaukee, WI"
"8"	"European American Front"	"White Nationalist"	"white-nationalist"	"Baldwyn"	"Mississippi"	34.5	-88.63	"(34.5, -88.63)"	"Milwaukee, WI"
"8"	"United Northern and Southern Knights of the Ku Klux Klan"	"Ku Klux Klan"	"kkk"	"Chicago"	"Illinois"	41.947205	-87.746807	"(41.947205, -87.746807)"	"Milwaukee, WI"
"8"	"League of the South"	"Neo-Confederate"	"neo-confederate"	"Crofton"	"Kentucky"	37.047821	-87.485002	"(37.047821, -87.485002)"	"Milwaukee, WI"
"8"	"League of the South"	"Neo-Confederate"	"neo-confederate"	"Lobelville"	"Tennessee"	35.77201	-87.783912	"(35.77201, -87.783912)"	"Milwaukee, WI"
"9"	"Knights of the Ku Klux Klan"	"Ku Klux Klan"	"kkk"	"Harrison"	"Arkansas"	36.226827	-93.107676	"(36.226827, -93.107676)"	"Minneapolis-St. Paul, MN-WI"
"9"	"Parents Action League"	"Anti-LGBT"	"anti-lgbt"	"Champlin"	"Minnesota"	45.188853	-93.397453	"(45.188853, -93.397453)"	"Minneapolis-St. Paul, MN-WI"
"9"	"National Socialist Movement"	"Neo-Nazi"	"neo-nazi"	""	"Iowa"	41.87	-93.09	"(41.87, -93.09)"	"Minneapolis-St. Paul, MN-WI"
"9"	"Thomas Robb Ministries"	"Christian Identity"	"christian-identity"	"Bergman"	"Arkansas"	36.326745	-93.011942	"(36.326745, -93.011942)"	"Minneapolis-St. Paul, MN-WI"
"9"	"Aryan Strikeforce"	"Racist Skinhead"	"racist-skinhead"	""	"Iowa"	41.874163	-93.09	"(41.874163, -93.09)"	"Minneapolis-St. Paul, MN-WI"
"9"	"National Socialist Movement"	"Neo-Nazi"	"neo-nazi"	"Springfield"	"Missouri"	37.2	-93.29	"(37.2, -93.29)"	"Minneapolis-St. Paul, MN-WI"
"9"	"Ozark Craft LC"	"General Hate"	"other"	"Harrison"	"Arkansas"	36.229793	-93.107676	"(36.229793, -93.107676)"	"Minneapolis-St. Paul, MN-WI"
"9"	"Vinlanders Minnesota"	"Racist Skinhead"	"racist-skinhead"	""	"Minnesota"	44.897318	-93.102714	"(44.897318, -93.102714)"	"Minneapolis-St. Paul, MN-WI"
"9"	"Weisman Publications"	"Christian Identity"	"christian-identity"	"Apple Valley"	"Minnesota"	44.731909	-93.21772	"(44.731909, -93.21772)"	"Minneapolis-St. Paul, MN-WI"
"9"	"Forssaken Motorcycle Club"	"Neo-Nazi"	"neo-nazi"	"Center Ridge"	"Arkansas"	35.37387	-92.563537	"(35.37387, -92.563537)"	"Minneapolis-St. Paul, MN-WI"
"9"	"Israelite Church of God in Jesus Christ"	"Black Separatist"	"black-separatist"	"Minneapolis"	"Minnesota"	44.994487	-93.298397	"(44.994487, -93.298397)"	"Minneapolis-St. Paul, MN-WI"
"9"	"Christian Revival Center"	"Christian Identity"	"christian-identity"	"Harrison"	"Arkansas"	36.22	-93.1	"(36.22, -93.1)"	"Minneapolis-St. Paul, MN-WI"
"9"	"National Socialist Movement"	"Neo-Nazi"	"neo-nazi"	"Minneapolis"	"Minnesota"	44.97	-93.26	"(44.97, -93.26)"	"Minneapolis-St. Paul, MN-WI"
"9"	"Kingdom Identity Ministries"	"Christian Identity"	"christian-identity"	"Harrison"	"Arkansas"	36.229999	-93.11	"(36.229999, -93.11)"	"Minneapolis-St. Paul, MN-WI"
"9"	"White Pride Home School Resource Center"	"General Hate"	"other"	"Bergman"	"Arkansas"	36.316745	-93.011942	"(36.316745, -93.011942)"	"Minneapolis-St. Paul, MN-WI"
"9"	"The Remnant Press"	"Radical Traditional Catholicism"	"rad-trad-catholicism"	"Forest Lake"	"Minnesota"	45.283142	-93.010751	"(45.283142, -93.010751)"	"Minneapolis-St. Paul, MN-WI"
"9"	"KKKRadio"	"Ku Klux Klan"	"kkk"	"Harrison"	"Arkansas"	36.222673	-93.1	"(36.222673, -93.1)"	"Minneapolis-St. Paul, MN-WI"
"9"	"Soldiers Of the Cross Training Institute"	"Ku Klux Klan"	"kkk"	"Harrison"	"Arkansas"	36.225996	-93.107676	"(36.225996, -93.107676)"	"Minneapolis-St. Paul, MN-WI"
"9"	"Knights Party Veterans League"	"Ku Klux Klan"	"kkk"	"Harrison"	"Arkansas"	36.229793	-93.102264	"(36.229793, -93.102264)"	"Minneapolis-St. Paul, MN-WI"
"9"	"Heritage Connection"	"Racist Music"	"racist-music"	"Harrison"	"Arkansas"	36.229793	-93.096085	"(36.229793, -93.096085)"	"Minneapolis-St. Paul, MN-WI"
"10"	"National Socialist German Workers Party"	"Neo-Nazi"	"neo-nazi"	"Lincoln"	"Nebraska"	40.818579	-96.711272	"(40.818579, -96.711272)"	"Omaha, NE-IA"
"10"	"Israelite Church of God in Jesus Christ"	"Black Separatist"	"black-separatist"	"Tulsa"	"Oklahoma"	36.194849	-95.988545	"(36.194849, -95.988545)"	"Omaha, NE-IA"
"10"	"Israelite Church of God in Jesus Christ"	"Black Separatist"	"black-separatist"	"Omaha"	"Nebraska"	41.291845	-95.967396	"(41.291845, -95.967396)"	"Omaha, NE-IA"
"10"	"Texas Knights of the Ku Klux Klan"	"Ku Klux Klan"	"kkk"	"Campbell"	"Texas"	33.14817	-95.951356	"(33.14817, -95.951356)"	"Omaha, NE-IA"
"10"	"Kingdom Treasure Ministries"	"Neo-Confederate"	"neo-confederate"	"Owasso"	"Oklahoma"	36.269538	-95.854711	"(36.269538, -95.854711)"	"Omaha, NE-IA"
"10"	"Westboro Baptist Church"	"Anti-LGBT"	"anti-lgbt"	"Topeka"	"Kansas"	39.040155	-95.724716	"(39.040155, -95.724716)"	"Omaha, NE-IA"
"10"	"National Socialist Freedom Movement"	"Neo-Nazi"	"neo-nazi"	"Tulsa"	"Oklahoma"	36.151088	-95.99458	"(36.151088, -95.99458)"	"Omaha, NE-IA"
"11"	"National Socialist Movement"	"Neo-Nazi"	"neo-nazi"	""	"Delaware"	39.15	-75.52	"(39.15, -75.52)"	"Philadelphia, PA-NJ"
"11"	"AC Skins"	"Racist Skinhead"	"racist-skinhead"	"Atlantic City"	"New Jersey"	39.36	-74.42	"(39.36, -74.42)"	"Philadelphia, PA-NJ"
"11"	"Israelite Church of God in Jesus Christ"	"Black Separatist"	"black-separatist"	"Camden"	"New Jersey"	39.955614	-75.116591	"(39.955614, -75.116591)"	"Philadelphia, PA-NJ"
"11"	"National Socialist Movement"	"Neo-Nazi"	"neo-nazi"	"Holland"	"New Jersey"	40.59	-75.11	"(40.59, -75.11)"	"Philadelphia, PA-NJ"
"11"	"Vinlanders New Jersey"	"Racist Skinhead"	"racist-skinhead"	"Cherry Hill"	"New Jersey"	39.92	-75.02	"(39.92, -75.02)"	"Philadelphia, PA-NJ"
"11"	"AC Skins"	"Racist Skinhead"	"racist-skinhead"	"Woodbine"	"New Jersey"	39.24	-74.81	"(39.24, -74.81)"	"Philadelphia, PA-NJ"
"11"	"Nation of Islam"	"Black Separatist"	"black-separatist"	"Wilmington"	"Delaware"	39.760071	-75.533492	"(39.760071, -75.533492)"	"Philadelphia, PA-NJ"
"11"	"Blood and Honour U.S.A."	"Racist Skinhead"	"racist-skinhead"	"Woodbridge Township"	"New Jersey"	40.53	-74.31	"(40.53, -74.31)"	"Philadelphia, PA-NJ"
"11"	"National Socialist Freedom Movement"	"Neo-Nazi"	"neo-nazi"	""	"Delaware"	38.934007	-75.387852	"(38.934007, -75.387852)"	"Philadelphia, PA-NJ"
"11"	"Keystone State Skinheads"	"Racist Skinhead"	"racist-skinhead"	"Philadelphia"	"Pennsylvania"	39.95	-75.16	"(39.95, -75.16)"	"Philadelphia, PA-NJ"
"11"	"Israelite Church of God in Jesus Christ"	"Black Separatist"	"black-separatist"	"Philadelphia"	"Pennsylvania"	39.986353	-75.101994	"(39.986353, -75.101994)"	"Philadelphia, PA-NJ"
"11"	"Eastern Hammerskins"	"Racist Skinhead"	"racist-skinhead"	"Allentown"	"Pennsylvania"	40.6	-75.49	"(40.6, -75.49)"	"Philadelphia, PA-NJ"
"11"	"AC Skins"	"Racist Skinhead"	"racist-skinhead"	"Pine Hill"	"New Jersey"	39.78	-74.99	"(39.78, -74.99)"	"Philadelphia, PA-NJ"
"11"	"Micetrap Distribution"	"Racist Music"	"racist-music"	"Maple Shade Township"	"New Jersey"	39.952612	-74.992391	"(39.952612, -74.992391)"	"Philadelphia, PA-NJ"
"11"	"National Socialist Movement"	"Neo-Nazi"	"neo-nazi"	"Pemberton Township"	"New Jersey"	39.97	-74.58	"(39.97, -74.58)"	"Philadelphia, PA-NJ"
"11"	"Israelite Church of God in Jesus Christ"	"Black Separatist"	"black-separatist"	"Coatesville"	"Pennsylvania"	39.983161	-75.823835	"(39.983161, -75.823835)"	"Philadelphia, PA-NJ"
"11"	"AC Skins"	"Racist Skinhead"	"racist-skinhead"	"Pemberton Township"	"New Jersey"	39.967122	-74.58	"(39.967122, -74.58)"	"Philadelphia, PA-NJ"
"11"	"Advanced White Society"	"White Nationalist"	"white-nationalist"	"Pemberton Township"	"New Jersey"	39.976782	-74.710158	"(39.976782, -74.710158)"	"Philadelphia, PA-NJ"
"11"	"AC Skins"	"Racist Skinhead"	"racist-skinhead"	"Somers Point"	"New Jersey"	39.31	-74.6	"(39.31, -74.6)"	"Philadelphia, PA-NJ"
"11"	"Nation of Islam"	"Black Separatist"	"black-separatist"	"Chester"	"Pennsylvania"	39.839981	-75.375362	"(39.839981, -75.375362)"	"Philadelphia, PA-NJ"
"11"	"As-Sabiqun"	"General Hate"	"other"	"Philadelphia"	"Pennsylvania"	39.959811	-75.16074	"(39.959811, -75.16074)"	"Philadelphia, PA-NJ"
"11"	"Nation of Islam"	"Black Separatist"	"black-separatist"	"Plainfield"	"New Jersey"	40.613743	-74.42325	"(40.613743, -74.42325)"	"Philadelphia, PA-NJ"
"11"	"Radio Jihad"	"Anti-Muslim"	"anti-muslim"	""	"New York"	43.06505	-74.850713	"(43.06505, -74.850713)"	"Philadelphia, PA-NJ"
"11"	"AC Skins"	"Racist Skinhead"	"racist-skinhead"	"Absecon"	"New Jersey"	39.42	-74.49	"(39.42, -74.49)"	"Philadelphia, PA-NJ"
"11"	"Israelite Church of God in Jesus Christ"	"Black Separatist"	"black-separatist"	"Norristown"	"Pennsylvania"	40.121497	-75.339904	"(40.121497, -75.339904)"	"Philadelphia, PA-NJ"
"11"	"AC Skins"	"Racist Skinhead"	"racist-skinhead"	"Galloway"	"New Jersey"	39.49	-74.55	"(39.49, -74.55)"	"Philadelphia, PA-NJ"
"11"	"AC Skins"	"Racist Skinhead"	"racist-skinhead"	"Brigantine"	"New Jersey"	39.41	-74.36	"(39.41, -74.36)"	"Philadelphia, PA-NJ"
"11"	"AC Skins"	"Racist Skinhead"	"racist-skinhead"	"Little Egg Harbor Township"	"New Jersey"	39.61	-74.35	"(39.61, -74.35)"	"Philadelphia, PA-NJ"
"11"	"Israelite Church of God in Jesus Christ"	"Black Separatist"	"black-separatist"	"Vineland"	"New Jersey"	39.478782	-75.03775	"(39.478782, -75.03775)"	"Philadelphia, PA-NJ"
"11"	"Nation of Islam"	"Black Separatist"	"black-separatist"	"Camden"	"New Jersey"	39.937645	-75.113672	"(39.937645, -75.113672)"	"Philadelphia, PA-NJ"
"11"	"Loyal White Knights of the Ku Klux Klan"	"Ku Klux Klan"	"kkk"	""	"New Jersey"	40.215546	-74.604906	"(40.215546, -74.604906)"	"Philadelphia, PA-NJ"
"11"	"Poker Face"	"Racist Music"	"racist-music"	"Allentown"	"Pennsylvania"	40.6	-75.47	"(40.6, -75.47)"	"Philadelphia, PA-NJ"
"11"	"Committee for Open Debate on the Holocaust"	"Holocaust Denial"	"holocaust-denial"	"Drums"	"Pennsylvania"	41.033165	-76.004373	"(41.033165, -76.004373)"	"Philadelphia, PA-NJ"
"11"	"European American Action Coalition"	"White Nationalist"	"white-nationalist"	"Pittston"	"Pennsylvania"	41.325913	-75.78936	"(41.325913, -75.78936)"	"Philadelphia, PA-NJ"
"11"	"AC Skins"	"Racist Skinhead"	"racist-skinhead"	"Wildwood"	"New Jersey"	38.99	-74.81	"(38.99, -74.81)"	"Philadelphia, PA-NJ"
"11"	"Nation of Islam"	"Black Separatist"	"black-separatist"	"Willingboro"	"New Jersey"	40.02795	-74.886984	"(40.02795, -74.886984)"	"Philadelphia, PA-NJ"
"11"	"Aryan Strikeforce"	"Racist Skinhead"	"racist-skinhead"	"Somerville"	"New Jersey"	40.57	-74.6	"(40.57, -74.6)"	"Philadelphia, PA-NJ"
"11"	"Israelite Church of God in Jesus Christ"	"Black Separatist"	"black-separatist"	"Philadelphia"	"Pennsylvania"	39.995507	-75.172048	"(39.995507, -75.172048)"	"Philadelphia, PA-NJ"
"11"	"AC Skins"	"Racist Skinhead"	"racist-skinhead"	"Marmora"	"New Jersey"	39.26	-74.64	"(39.26, -74.64)"	"Philadelphia, PA-NJ"
"11"	"Council of Conservative Citizens"	"White Nationalist"	"white-nationalist"	"Revere"	"Pennsylvania"	40.524861	-75.162564	"(40.524861, -75.162564)"	"Philadelphia, PA-NJ"
"11"	"Nation of Islam"	"Black Separatist"	"black-separatist"	"Philadelphia"	"Pennsylvania"	39.991292	-75.155513	"(39.991292, -75.155513)"	"Philadelphia, PA-NJ"
"11"	"Israelite Church of God in Jesus Christ"	"Black Separatist"	"black-separatist"	"Allentown"	"Pennsylvania"	40.607381	-75.478166	"(40.607381, -75.478166)"	"Philadelphia, PA-NJ"
"11"	"AC Skins"	"Racist Skinhead"	"racist-skinhead"	"Camden"	"New Jersey"	39.92	-75.11	"(39.92, -75.11)"	"Philadelphia, PA-NJ"
"11"	"AC Skins"	"Racist Skinhead"	"racist-skinhead"	"Hamilton Township"	"New Jersey"	39.45	-74.72	"(39.45, -74.72)"	"Philadelphia, PA-NJ"
"11"	"Catholic Counterpoint"	"Radical Traditional Catholicism"	"rad-trad-catholicism"	"Broomall"	"Pennsylvania"	39.971667	-75.354722	"(39.971667, -75.354722)"	"Philadelphia, PA-NJ"
"12"	"National Alliance"	"Neo-Nazi"	"neo-nazi"	"Hillsboro"	"West Virginia"	38.135397	-80.213126	"(38.135397, -80.213126)"	"Pittsburgh, PA"
"12"	"Nation of Islam"	"Black Separatist"	"black-separatist"	"Greensboro"	"North Carolina"	36.019649	-79.762417	"(36.019649, -79.762417)"	"Pittsburgh, PA"
"12"	"Loyal White Knights of the Ku Klux Klan"	"Ku Klux Klan"	"kkk"	"Eden"	"North Carolina"	36.488471	-79.766702	"(36.488471, -79.766702)"	"Pittsburgh, PA"
"12"	"Aryan Terror Brigade"	"Racist Skinhead"	"racist-skinhead"	""	"West Virginia"	38.590577	-80.45	"(38.590577, -80.45)"	"Pittsburgh, PA"
"12"	"Alliance for Catholic Tradition"	"Radical Traditional Catholicism"	"rad-trad-catholicism"	"Pleasant Unity"	"Pennsylvania"	40.240555	-79.457731	"(40.240555, -79.457731)"	"Pittsburgh, PA"
"12"	"American Freedom Party"	"White Nationalist"	"white-nationalist"	"Maidsville"	"West Virginia"	39.67191	-80.109357	"(39.67191, -80.109357)"	"Pittsburgh, PA"
"12"	"Israelite Church of God in Jesus Christ"	"Black Separatist"	"black-separatist"	"Pittsburgh"	"Pennsylvania"	40.450914	-79.902477	"(40.450914, -79.902477)"	"Pittsburgh, PA"
"12"	"Aryan Nations OH"	"Neo-Nazi"	"neo-nazi"	""	"West Virginia"	38.59	-80.45	"(38.59, -80.45)"	"Pittsburgh, PA"
"12"	"Blood and Honour U.S.A."	"Racist Skinhead"	"racist-skinhead"	"Salem"	"Ohio"	40.9	-80.85	"(40.9, -80.85)"	"Pittsburgh, PA"
"12"	"Aryan Nations LA"	"Neo-Nazi"	"neo-nazi"	"Bedford"	"Virginia"	37.33	-79.52	"(37.33, -79.52)"	"Pittsburgh, PA"
"12"	"Creativity Alliance"	"Neo-Nazi"	"neo-nazi"	""	"West Virginia"	38.58843	-80.45	"(38.58843, -80.45)"	"Pittsburgh, PA"
"12"	"Loyal White Knights of the Ku Klux Klan"	"Ku Klux Klan"	"kkk"	"Pelham"	"North Carolina"	36.510278	-79.471667	"(36.510278, -79.471667)"	"Pittsburgh, PA"
"12"	"Old Glory Skinheads"	"Racist Skinhead"	"racist-skinhead"	"Mt Airy"	"North Carolina"	36.49	-80.6	"(36.49, -80.6)"	"Pittsburgh, PA"
"12"	"Nation of Islam"	"Black Separatist"	"black-separatist"	"Pittsburgh"	"Pennsylvania"	40.436882	-79.857682	"(40.436882, -79.857682)"	"Pittsburgh, PA"
"12"	"American Freedom Party"	"White Nationalist"	"white-nationalist"	"Incomplete"	"Indiana"	40.62	-79.15	"(40.62, -79.15)"	"Pittsburgh, PA"
"12"	"Nation of Islam"	"Black Separatist"	"black-separatist"	"Youngstown"	"Ohio"	41.099004	-80.652113	"(41.099004, -80.652113)"	"Pittsburgh, PA"
"12"	"Loyal White Knights of the Ku Klux Klan"	"Ku Klux Klan"	"kkk"	""	"West Virginia"	39.278635	-80.432652	"(39.278635, -80.432652)"	"Pittsburgh, PA"
"12"	"American Family Association"	"Anti-LGBT"	"anti-lgbt"	"Franklin"	"Pennsylvania"	41.397835	-79.831443	"(41.397835, -79.831443)"	"Pittsburgh, PA"
"12"	"Ku Klos Knights of the Ku Klux Klan"	"Ku Klux Klan"	"kkk"	"Oil City"	"Pennsylvania"	41.433948	-79.706441	"(41.433948, -79.706441)"	"Pittsburgh, PA"
"12"	"Casa D'Ice Signs"	"Anti-Muslim"	"anti-muslim"	"North Versailles"	"Pennsylvania"	40.379791	-79.809491	"(40.379791, -79.809491)"	"Pittsburgh, PA"
"12"	"Creativity Movement"	"Neo-Nazi"	"neo-nazi"	""	"West Virginia"	38.59	-80.454597	"(38.59, -80.454597)"	"Pittsburgh, PA"
"12"	"Council of Conservative Citizens"	"White Nationalist"	"white-nationalist"	"Winston-Salem"	"North Carolina"	36.11	-80.24	"(36.11, -80.24)"	"Pittsburgh, PA"
"12"	"American Immigration Control Foundation/Americans for Immigration Control"	"Anti-Immigrant"	"anti-immigrant"	"Monterey"	"Virginia"	38.41	-79.58	"(38.41, -79.58)"	"Pittsburgh, PA"
"13"	"Aryan Nations LA"	"Neo-Nazi"	"neo-nazi"	"Exeter"	"New Hampshire"	42.98	-70.94	"(42.98, -70.94)"	"Portland, ME"
"13"	"Loyal White Knights of the Ku Klux Klan"	"Ku Klux Klan"	"kkk"	""	"Maine"	44.352001	-69.692376	"(44.352001, -69.692376)"	"Portland, ME"
"14"	"Eastern Hammerskins"	"Racist Skinhead"	"racist-skinhead"	""	"New Hampshire"	43.19	-71.574211	"(43.19, -71.574211)"	"Providence, RI"
"14"	"Malevolent Freedom"	"White Nationalist"	"white-nationalist"	"Lowell"	"Massachusetts"	42.656813	-71.302268	"(42.656813, -71.302268)"	"Providence, RI"
"14"	"Slaves of the Immaculate Heart of Mary"	"Radical Traditional Catholicism"	"rad-trad-catholicism"	"Richmond"	"New Hampshire"	42.748849	-72.22305	"(42.748849, -72.22305)"	"Providence, RI"
"14"	"Advanced White Society"	"White Nationalist"	"white-nationalist"	""	"Massachusetts"	42.40039	-71.38	"(42.40039, -71.38)"	"Providence, RI"
"14"	"Crew 38"	"Racist Skinhead"	"racist-skinhead"	""	"New Hampshire"	43.186154	-71.57	"(43.186154, -71.57)"	"Providence, RI"
"14"	"Aryan Strikeforce"	"Racist Skinhead"	"racist-skinhead"	""	"Massachusetts"	42.403686	-71.38	"(42.403686, -71.38)"	"Providence, RI"
"14"	"Nation of Islam"	"Black Separatist"	"black-separatist"	"Boston"	"Massachusetts"	42.308298	-71.082726	"(42.308298, -71.082726)"	"Providence, RI"
"14"	"National Socialist Movement"	"Neo-Nazi"	"neo-nazi"	""	"New Hampshire"	43.19	-71.57	"(43.19, -71.57)"	"Providence, RI"
"14"	"White Man's March"	"White Nationalist"	"white-nationalist"	""	"Massachusetts"	42.4	-71.37886	"(42.4, -71.37886)"	"Providence, RI"
"14"	"Aryan Nations LA"	"Neo-Nazi"	"neo-nazi"	"Exeter"	"New Hampshire"	42.98	-70.94	"(42.98, -70.94)"	"Providence, RI"
"14"	"National Socialist Movement"	"Neo-Nazi"	"neo-nazi"	""	"Rhode Island"	41.58	-71.47	"(41.58, -71.47)"	"Providence, RI"
"14"	"Concerned Citizens and Friends of Illegal Immigration Law Enforcement"	"General Hate"	"other"	"Framingham"	"Massachusetts"	42.324004	-71.453683	"(42.324004, -71.453683)"	"Providence, RI"
"14"	"Aryan Terror Brigade"	"Racist Skinhead"	"racist-skinhead"	""	"Massachusetts"	42.4	-71.38607	"(42.4, -71.38607)"	"Providence, RI"
"14"	"New Black Panther Party"	"Black Separatist"	"black-separatist"	"Boston"	"Massachusetts"	42.354856	-71.066119	"(42.354856, -71.066119)"	"Providence, RI"
"14"	"Free America Rally"	"White Nationalist"	"white-nationalist"	""	"Massachusetts"	42.354179	-72.142909	"(42.354179, -72.142909)"	"Providence, RI"
"14"	"Mass Resistance"	"Anti-LGBT"	"anti-lgbt"	"Waltham"	"Massachusetts"	42.397106	-71.259899	"(42.397106, -71.259899)"	"Providence, RI"
"14"	"IHM Media"	"Radical Traditional Catholicism"	"rad-trad-catholicism"	"Richmond"	"New Hampshire"	42.736413	-72.232178	"(42.736413, -72.232178)"	"Providence, RI"
"14"	"National Socialist Movement"	"Neo-Nazi"	"neo-nazi"	""	"Massachusetts"	42.4	-71.38	"(42.4, -71.38)"	"Providence, RI"
"153"	"Aryan Nations OH"	"Neo-Nazi"	"neo-nazi"	""	"Texas"	31.964688	-99.9	"(31.964688, -99.9)"	"Abilene, TX"
"153"	"carolynyeager.net"	"White Nationalist"	"white-nationalist"	"Kerrville"	"Texas"	30.045417	-99.151591	"(30.045417, -99.151591)"	"Abilene, TX"
"153"	"National Socialist Movement"	"Neo-Nazi"	"neo-nazi"	""	"Texas"	31.963522	-99.9	"(31.963522, -99.9)"	"Abilene, TX"
"153"	"Aryan Nations LA"	"Neo-Nazi"	"neo-nazi"	""	"Texas"	31.96	-99.9	"(31.96, -99.9)"	"Abilene, TX"
"153"	"Die Auserwahlten"	"Racist Skinhead"	"racist-skinhead"	""	"Texas"	31.966435	-99.9	"(31.966435, -99.9)"	"Abilene, TX"
"153"	"The White Network"	"White Nationalist"	"white-nationalist"	"Kerrville"	"Texas"	30.041458	-99.151591	"(30.041458, -99.151591)"	"Abilene, TX"
"153"	"Creativity Alliance"	"Neo-Nazi"	"neo-nazi"	""	"Texas"	31.96	-99.893875	"(31.96, -99.893875)"	"Abilene, TX"
"153"	"Vinlanders Texas"	"Racist Skinhead"	"racist-skinhead"	""	"Texas"	31.96	-99.897652	"(31.96, -99.897652)"	"Abilene, TX"
"153"	"Aryan Strikeforce"	"Racist Skinhead"	"racist-skinhead"	""	"Texas"	31.96	-99.893188	"(31.96, -99.893188)"	"Abilene, TX"
"223"	"American Nazi Party"	"Neo-Nazi"	"neo-nazi"	""	"West Virginia"	38.312047	-81.482819	"(38.312047, -81.482819)"	"Akron, OH"
"223"	"Blood and Honour U.S.A."	"Racist Skinhead"	"racist-skinhead"	"Salem"	"Ohio"	40.9	-80.85	"(40.9, -80.85)"	"Akron, OH"
"223"	"Original Knight Riders Knights of the Ku Klux Klan (W. Va.)"	"Ku Klux Klan"	"kkk"	"Charleston"	"Virginia"	38.337969	-81.6107	"(38.337969, -81.6107)"	"Akron, OH"
"223"	"Ku Klos Knights of the Ku Klux Klan"	"Ku Klux Klan"	"kkk"	"Lenoir"	"North Carolina"	35.914019	-81.538984	"(35.914019, -81.538984)"	"Akron, OH"
"223"	"National Alliance"	"Neo-Nazi"	"neo-nazi"	"Parma"	"Ohio"	41.391641	-81.702104	"(41.391641, -81.702104)"	"Akron, OH"
"223"	"Original Knight Riders Knights of the Ku Klux Klan (W. Va.)"	"Ku Klux Klan"	"kkk"	"Beckley"	"West Virginia"	37.799995	-81.175906	"(37.799995, -81.175906)"	"Akron, OH"
"223"	"National Alliance"	"Neo-Nazi"	"neo-nazi"	"Mountain City"	"Tennessee"	36.47	-81.8	"(36.47, -81.8)"	"Akron, OH"
"223"	"Geauga Constitutional Council"	"General Hate"	"other"	"Mayfield Heights"	"Ohio"	41.525337	-81.438772	"(41.525337, -81.438772)"	"Akron, OH"
"223"	"Nation of Islam"	"Black Separatist"	"black-separatist"	"Youngstown"	"Ohio"	41.099004	-80.652113	"(41.099004, -80.652113)"	"Akron, OH"
"223"	"Providence Road Baptist Church"	"Anti-LGBT"	"anti-lgbt"	"Maiden"	"North Carolina"	35.575688	-81.211747	"(35.575688, -81.211747)"	"Akron, OH"
"223"	"National Socialist Freedom Movement"	"Neo-Nazi"	"neo-nazi"	""	"Ohio"	41.044038	-81.521241	"(41.044038, -81.521241)"	"Akron, OH"
"223"	"Aryan Nations LA"	"Neo-Nazi"	"neo-nazi"	"Hickory"	"North Carolina"	35.73	-81.34	"(35.73, -81.34)"	"Akron, OH"
"223"	"Ku Klos Knights of the Ku Klux Klan"	"Ku Klux Klan"	"kkk"	"Butler"	"Tennessee"	36.318346	-81.975299	"(36.318346, -81.975299)"	"Akron, OH"
"330"	"Aryan Terror Brigade"	"Racist Skinhead"	"racist-skinhead"	""	"Kentucky"	37.83	-84.270973	"(37.83, -84.270973)"	"Albany, GA"
"330"	"Islam: the Religion of Peace (and a big stack of dead bodies)"	"Anti-Muslim"	"anti-muslim"	"Marietta"	"Georgia"	33.966826	-84.443522	"(33.966826, -84.443522)"	"Albany, GA"
"330"	"Occidental Quarterly/Charles Martel Society"	"White Nationalist"	"white-nationalist"	"Atlanta"	"Georgia"	33.75	-84.39	"(33.75, -84.39)"	"Albany, GA"
"330"	"Trinity White Knights of the Ku Klux Klan"	"Ku Klux Klan"	"kkk"	"Georgetown"	"Kentucky"	38.2	-84.55	"(38.2, -84.55)"	"Albany, GA"
"330"	"All Eyes On Egypt Bookstore"	"Black Separatist"	"black-separatist"	"Macon"	"Georgia"	32.84	-83.63	"(32.84, -83.63)"	"Albany, GA"
"330"	"Southern Mountain Knights of the Ku Klux Klan"	"Ku Klux Klan"	"kkk"	"Alcoa"	"Tennessee"	35.78	-83.97	"(35.78, -83.97)"	"Albany, GA"
"330"	"Crew 38"	"Racist Skinhead"	"racist-skinhead"	"Dallas"	"Georgia"	33.92	-84.84	"(33.92, -84.84)"	"Albany, GA"
"330"	"American Vision"	"Anti-LGBT"	"anti-lgbt"	"Powder Springs"	"Georgia"	33.859549	-84.683824	"(33.859549, -84.683824)"	"Albany, GA"
"330"	"New Black Panther Party"	"Black Separatist"	"black-separatist"	"Atlanta"	"Georgia"	33.76	-84.39	"(33.76, -84.39)"	"Albany, GA"
"330"	"Nation of Islam"	"Black Separatist"	"black-separatist"	"Lexington"	"Kentucky"	38.046818	-84.494687	"(38.046818, -84.494687)"	"Albany, GA"
"330"	"Southern National Congress"	"Neo-Confederate"	"neo-confederate"	"Morganton"	"Georgia"	34.876667	-84.245556	"(34.876667, -84.245556)"	"Albany, GA"
"330"	"National Socialist Movement"	"Neo-Nazi"	"neo-nazi"	"Tallahassee"	"Florida"	30.43	-84.28	"(30.43, -84.28)"	"Albany, GA"
"330"	"Council of Conservative Citizens"	"White Nationalist"	"white-nationalist"	"Springboro"	"Ohio"	39.546908	-84.242732	"(39.546908, -84.242732)"	"Albany, GA"
"330"	"Creativity Movement"	"Neo-Nazi"	"neo-nazi"	""	"Kentucky"	37.83	-84.274406	"(37.83, -84.274406)"	"Albany, GA"
"330"	"Aryan Strikeforce"	"Racist Skinhead"	"racist-skinhead"	""	"Kentucky"	37.836903	-84.27	"(37.836903, -84.27)"	"Albany, GA"
"330"	"Kinsman Redeemer Ministries"	"Christian Identity"	"christian-identity"	"Alexandria"	"Kentucky"	38.959507	-84.387994	"(38.959507, -84.387994)"	"Albany, GA"
"330"	"Covenant People's Ministry"	"Christian Identity"	"christian-identity"	"Brooks"	"Georgia"	33.290951	-84.45937	"(33.290951, -84.45937)"	"Albany, GA"
"330"	"Loyal White Knights of the Ku Klux Klan"	"Ku Klux Klan"	"kkk"	""	"Florida"	30.509943	-84.364719	"(30.509943, -84.364719)"	"Albany, GA"
"330"	"Aryan Nations OH"	"Neo-Nazi"	"neo-nazi"	""	"Kentucky"	37.83	-84.27	"(37.83, -84.27)"	"Albany, GA"
"330"	"Ku Klos Knights of the Ku Klux Klan"	"Ku Klux Klan"	"kkk"	"Knoxville"	"Tennessee"	35.960638	-83.920739	"(35.960638, -83.920739)"	"Albany, GA"
"330"	"Nation of Islam"	"Black Separatist"	"black-separatist"	"Atlanta"	"Georgia"	33.689184	-84.50818	"(33.689184, -84.50818)"	"Albany, GA"
"330"	"National Socialist Freedom Movement"	"Neo-Nazi"	"neo-nazi"	""	"Georgia"	33.948814	-84.537945	"(33.948814, -84.537945)"	"Albany, GA"
"330"	"Truth At Last"	"General Hate"	"other"	"Marietta"	"Georgia"	33.95	-84.55	"(33.95, -84.55)"	"Albany, GA"
"330"	"Islam: Making a True Difference in the World -- One Body at a Time"	"Anti-Muslim"	"anti-muslim"	"Marietta"	"Georgia"	33.976826	-84.443522	"(33.976826, -84.443522)"	"Albany, GA"
"330"	"Red October"	"White Nationalist"	"white-nationalist"	"Hamilton"	"Ohio"	39.3995	-84.561335	"(39.3995, -84.561335)"	"Albany, GA"
"330"	"Southern Mountain Knights of the Ku Klux Klan"	"Ku Klux Klan"	"kkk"	"Clinton"	"Tennessee"	36.1	-84.13	"(36.1, -84.13)"	"Albany, GA"
"330"	"Christ or Chaos"	"Radical Traditional Catholicism"	"rad-trad-catholicism"	"West Chester"	"Ohio"	39.328237	-84.553667	"(39.328237, -84.553667)"	"Albany, GA"
"330"	"Creativity Movement"	"Neo-Nazi"	"neo-nazi"	"Covington"	"Ohio"	40.11	-84.35	"(40.11, -84.35)"	"Albany, GA"
"330"	"Fellowship of God's Covenant People"	"Christian Identity"	"christian-identity"	"Union"	"Kentucky"	38.945895	-84.680501	"(38.945895, -84.680501)"	"Albany, GA"
"330"	"National Socialist Movement"	"Neo-Nazi"	"neo-nazi"	"Atlanta"	"Georgia"	33.743469	-84.38	"(33.743469, -84.38)"	"Albany, GA"
"330"	"Loyal White Knights of the Ku Klux Klan"	"Ku Klux Klan"	"kkk"	""	"Georgia"	32.232644	-83.464355	"(32.232644, -83.464355)"	"Albany, GA"
"330"	"Sons of Thundr (Faith Baptist Church)"	"Anti-LGBT"	"anti-lgbt"	"Luthersville"	"Georgia"	33.21012	-84.744376	"(33.21012, -84.744376)"	"Albany, GA"
"330"	"National Socialist Movement"	"Neo-Nazi"	"neo-nazi"	""	"Kentucky"	37.833378	-84.27	"(37.833378, -84.27)"	"Albany, GA"
"330"	"League of the South"	"Neo-Confederate"	"neo-confederate"	"Macon"	"Georgia"	32.840694	-83.632402	"(32.840694, -83.632402)"	"Albany, GA"
"330"	"Nation of Islam"	"Black Separatist"	"black-separatist"	"Dayton"	"Ohio"	39.738371	-84.291075	"(39.738371, -84.291075)"	"Albany, GA"
"330"	"Alternative Right"	"White Nationalist"	"white-nationalist"	"Atlanta"	"Georgia"	33.74	-84.38	"(33.74, -84.38)"	"Albany, GA"
"330"	"Society for the Practical Establishment and Perpetuation of the Ten Commandments"	"General Hate"	"other"	"Eatonton"	"Georgia"	33.326799	-83.388496	"(33.326799, -83.388496)"	"Albany, GA"
"330"	"Southern Mountain Knights of the Ku Klux Klan"	"Ku Klux Klan"	"kkk"	"Harrogate"	"Tennessee"	36.58	-83.65	"(36.58, -83.65)"	"Albany, GA"
"410"	"Stop the Islamization of Nations (SION)"	"Anti-Muslim"	"anti-muslim"	"New York"	"New York"	40.736613	-74.009447	"(40.736613, -74.009447)"	"Albany-Schenectady-Troy, NY"
"410"	"Loyal White Knights of the Ku Klux Klan"	"Ku Klux Klan"	"kkk"	"Altamont"	"New York"	42.719411	-74.006509	"(42.719411, -74.006509)"	"Albany-Schenectady-Troy, NY"
"410"	"Blood and Honour U.S.A."	"Racist Skinhead"	"racist-skinhead"	"Woodbridge Township"	"New Jersey"	40.53	-74.31	"(40.53, -74.31)"	"Albany-Schenectady-Troy, NY"
"410"	"Aryan Strikeforce"	"Racist Skinhead"	"racist-skinhead"	""	"New York"	43.29	-74.21608	"(43.29, -74.21608)"	"Albany-Schenectady-Troy, NY"
"410"	"New Yorkers for Immigration Control and Enforcement (NYICE)"	"Anti-Immigrant"	"anti-immigrant"	"New York"	"New York"	40.741366	-73.998448	"(40.741366, -73.998448)"	"Albany-Schenectady-Troy, NY"
"410"	"Nation of Islam"	"Black Separatist"	"black-separatist"	"Newark"	"New Jersey"	40.744016	-74.171579	"(40.744016, -74.171579)"	"Albany-Schenectady-Troy, NY"
"410"	"American Defence League"	"Anti-Muslim"	"anti-muslim"	"New York"	"New York"	40.722784	-74.005941	"(40.722784, -74.005941)"	"Albany-Schenectady-Troy, NY"
"410"	"All Eyes On Egipt Bookstore Brooklyn NY"	"Black Separatist"	"black-separatist"	"Brooklyn"	"New York"	40.69	-73.93	"(40.69, -73.93)"	"Albany-Schenectady-Troy, NY"
"410"	"Aryan Nations OH"	"Neo-Nazi"	"neo-nazi"	""	"New York"	43.29	-74.21	"(43.29, -74.21)"	"Albany-Schenectady-Troy, NY"
"410"	"Creativity Alliance"	"Neo-Nazi"	"neo-nazi"	"Middlebury"	"Vermont"	44.01	-73.16	"(44.01, -73.16)"	"Albany-Schenectady-Troy, NY"
"410"	"AC Skins"	"Racist Skinhead"	"racist-skinhead"	"Brick"	"New Jersey"	40.05	-74.13	"(40.05, -74.13)"	"Albany-Schenectady-Troy, NY"
"410"	"Nation of Islam"	"Black Separatist"	"black-separatist"	"New York"	"New York"	40.678178	-73.944157	"(40.678178, -73.944157)"	"Albany-Schenectady-Troy, NY"
"410"	"American Front"	"Racist Skinhead"	"racist-skinhead"	"Roselle"	"New Jersey"	40.65	-74.25	"(40.65, -74.25)"	"Albany-Schenectady-Troy, NY"
"410"	"Israelite Church of God in Jesus Christ"	"Black Separatist"	"black-separatist"	"Jersey City"	"New Jersey"	40.700852	-74.088757	"(40.700852, -74.088757)"	"Albany-Schenectady-Troy, NY"
"410"	"The White Voice"	"White Nationalist"	"white-nationalist"	"New York"	"New York"	40.813891	-73.956871	"(40.813891, -73.956871)"	"Albany-Schenectady-Troy, NY"
"410"	"Israelite Church of God in Jesus Christ"	"Black Separatist"	"black-separatist"	"Asbury Park"	"New Jersey"	40.215929	-74.023515	"(40.215929, -74.023515)"	"Albany-Schenectady-Troy, NY"
"410"	"Tony Alamo Christian Ministries"	"General Hate"	"other"	"New York"	"New York"	40.746584	-73.984531	"(40.746584, -73.984531)"	"Albany-Schenectady-Troy, NY"
"410"	"Stop the Islamization of America (SIOA)"	"Anti-Muslim"	"anti-muslim"	"New York"	"New York"	40.759394	-73.969779	"(40.759394, -73.969779)"	"Albany-Schenectady-Troy, NY"
"410"	"Nation of Islam"	"Black Separatist"	"black-separatist"	"Plainfield"	"New Jersey"	40.613743	-74.42325	"(40.613743, -74.42325)"	"Albany-Schenectady-Troy, NY"
"410"	"Council of Conservative Citizens"	"White Nationalist"	"white-nationalist"	"New York"	"New York"	40.715133	-74.010995	"(40.715133, -74.010995)"	"Albany-Schenectady-Troy, NY"
"410"	"South Africa Project"	"White Nationalist"	"white-nationalist"	""	"New York"	43.237033	-73.912467	"(43.237033, -73.912467)"	"Albany-Schenectady-Troy, NY"
"410"	"National Socialist Freedom Movement"	"Neo-Nazi"	"neo-nazi"	""	"Connecticut"	41.597729	-73.08	"(41.597729, -73.08)"	"Albany-Schenectady-Troy, NY"
"410"	"Jewish Political Action Committee"	"Anti-LGBT"	"anti-lgbt"	"New York"	"New York"	40.709335	-73.956555	"(40.709335, -73.956555)"	"Albany-Schenectady-Troy, NY"
"410"	"Aryan Nations LA"	"Neo-Nazi"	"neo-nazi"	"Midland Park"	"New Jersey"	40.98	-74.14	"(40.98, -74.14)"	"Albany-Schenectady-Troy, NY"
"410"	"National Socialist Movement"	"Neo-Nazi"	"neo-nazi"	"Clifton"	"New Jersey"	40.85	-74.16	"(40.85, -74.16)"	"Albany-Schenectady-Troy, NY"
"410"	"American Freedom Defense Initiative"	"Anti-Muslim"	"anti-muslim"	"New York"	"New York"	40.776905	-73.980064	"(40.776905, -73.980064)"	"Albany-Schenectady-Troy, NY"
"410"	"American Front"	"Racist Skinhead"	"racist-skinhead"	"Haledon"	"New Jersey"	40.93	-74.18	"(40.93, -74.18)"	"Albany-Schenectady-Troy, NY"
"410"	"Atlas Shrugs"	"Anti-Muslim"	"anti-muslim"	"New York"	"New York"	40.753685	-73.999163	"(40.753685, -73.999163)"	"Albany-Schenectady-Troy, NY"
"410"	"Castle Hill Publishers"	"Holocaust Denial"	"holocaust-denial"	"New York"	"New York"	40.77977	-73.983628	"(40.77977, -73.983628)"	"Albany-Schenectady-Troy, NY"
"410"	"Israelite Church of God In Jesus Christ"	"Black Separatist"	"black-separatist"	"New York"	"New York"	40.813891	-73.962432	"(40.813891, -73.962432)"	"Albany-Schenectady-Troy, NY"
"410"	"National Socialist Movement"	"Neo-Nazi"	"neo-nazi"	""	"Connecticut"	41.6	-73.075562	"(41.6, -73.075562)"	"Albany-Schenectady-Troy, NY"
"410"	"The Israelite Church of God in Jesus Christ"	"Black Separatist"	"black-separatist"	"New York"	"New York"	40.794065	-73.927164	"(40.794065, -73.927164)"	"Albany-Schenectady-Troy, NY"
"410"	"National Socialist Movement"	"Neo-Nazi"	"neo-nazi"	"Bayonne"	"New Jersey"	40.66	-74.11	"(40.66, -74.11)"	"Albany-Schenectady-Troy, NY"
"410"	"New Black Panther Party"	"Black Separatist"	"black-separatist"	"Queens"	"New York"	40.728223	-73.794851	"(40.728223, -73.794851)"	"Albany-Schenectady-Troy, NY"
"410"	"Sultan Knish a blog by Daniel Greenfield"	"Anti-Muslim"	"anti-muslim"	"New York"	"New York"	40.721786	-74.009447	"(40.721786, -74.009447)"	"Albany-Schenectady-Troy, NY"
"410"	"Black Riders Liberation Party"	"Black Separatist"	"black-separatist"	""	"New York"	42.654738	-73.788968	"(42.654738, -73.788968)"	"Albany-Schenectady-Troy, NY"
"410"	"ATLAH World Missionary Church (All The Land Anointed Holy)"	"Anti-LGBT"	"anti-lgbt"	"New York"	"New York"	40.814849	-73.962432	"(40.814849, -73.962432)"	"Albany-Schenectady-Troy, NY"
"410"	"Vinlanders New Jersey"	"Racist Skinhead"	"racist-skinhead"	"Point Pleasant Beach"	"New Jersey"	40.09	-74.04	"(40.09, -74.04)"	"Albany-Schenectady-Troy, NY"
"410"	"Creativity Movement"	"Neo-Nazi"	"neo-nazi"	""	"New York"	43.292451	-74.21	"(43.292451, -74.21)"	"Albany-Schenectady-Troy, NY"
"410"	"Advanced White Society"	"White Nationalist"	"white-nationalist"	"New York"	"New York"	40.71	-74.004593	"(40.71, -74.004593)"	"Albany-Schenectady-Troy, NY"
"410"	"The Hated"	"Racist Skinhead"	"racist-skinhead"	"Toms River"	"New Jersey"	39.95	-74.19	"(39.95, -74.19)"	"Albany-Schenectady-Troy, NY"
"410"	"Pioneer Fund"	"White Nationalist"	"white-nationalist"	"New York"	"New York"	40.77007	-73.958024	"(40.77007, -73.958024)"	"Albany-Schenectady-Troy, NY"
"410"	"American Freedom Party"	"White Nationalist"	"white-nationalist"	"New York"	"New York"	40.79992	-73.96831	"(40.79992, -73.96831)"	"Albany-Schenectady-Troy, NY"
"410"	"Jewish Task Force"	"General Hate"	"other"	"Fresh Meadows"	"New York"	40.742194	-73.788968	"(40.742194, -73.788968)"	"Albany-Schenectady-Troy, NY"
"410"	"National Socialist Movement"	"Neo-Nazi"	"neo-nazi"	"Newark"	"New Jersey"	40.73	-74.17	"(40.73, -74.17)"	"Albany-Schenectady-Troy, NY"
"410"	"Creativity Movement"	"Neo-Nazi"	"neo-nazi"	""	"Connecticut"	41.6	-73.08	"(41.6, -73.08)"	"Albany-Schenectady-Troy, NY"
"410"	"Golden Dawn"	"Neo-Nazi"	"neo-nazi"	"Astoria"	"New York"	40.763372	-73.910997	"(40.763372, -73.910997)"	"Albany-Schenectady-Troy, NY"
"410"	"International Fatima Rosary Crusade/ Fatima Crusader"	"Radical Traditional Catholicism"	"rad-trad-catholicism"	"Constable"	"New York"	44.991376	-74.306598	"(44.991376, -74.306598)"	"Albany-Schenectady-Troy, NY"
"410"	"Aryan Terror Brigade"	"Racist Skinhead"	"racist-skinhead"	""	"New York"	40.712915	-74	"(40.712915, -74.0)"	"Albany-Schenectady-Troy, NY"
"410"	"National Socialist Movement"	"Neo-Nazi"	"neo-nazi"	"New York"	"New York"	40.71	-74	"(40.71, -74.0)"	"Albany-Schenectady-Troy, NY"
"410"	"Nation of Islam"	"Black Separatist"	"black-separatist"	"Harlem"	"New York"	40.81	-73.95	"(40.81, -73.95)"	"Albany-Schenectady-Troy, NY"
"410"	"American Front"	"Racist Skinhead"	"racist-skinhead"	"Hackensack"	"New Jersey"	40.88	-74.04	"(40.88, -74.04)"	"Albany-Schenectady-Troy, NY"
"410"	"Aryan Nations - LA"	"Neo-Nazi"	"neo-nazi"	"North Bergen"	"New Jersey"	40.8	-74.01	"(40.8, -74.01)"	"Albany-Schenectady-Troy, NY"
"410"	"Cultural Studies Press"	"General Hate"	"other"	"New York"	"New York"	40.737341	-73.954804	"(40.737341, -73.954804)"	"Albany-Schenectady-Troy, NY"
"410"	"Catholic Family and Human Rights Institute (C-FAM)"	"Anti-LGBT"	"anti-lgbt"	"New York"	"New York"	40.751984	-73.969779	"(40.751984, -73.969779)"	"Albany-Schenectady-Troy, NY"
"410"	"Free America Rally"	"White Nationalist"	"white-nationalist"	""	"New York"	40.712783	-74.005941	"(40.712783, -74.005941)"	"Albany-Schenectady-Troy, NY"
"53"	"11th Hour Remnant Messenger"	"Christian Identity"	"christian-identity"	"Santa Fe"	"New Mexico"	35.68	-105.93	"(35.68, -105.93)"	"Albuquerque, NM"
"53"	"Aggressive Christianity"	"General Hate"	"other"	"Berino"	"New Mexico"	32.03808	-106.45479	"(32.03808, -106.45479)"	"Albuquerque, NM"
"69"	"Knights of the Ku Klux Klan"	"Ku Klux Klan"	"kkk"	"Harrison"	"Arkansas"	36.226827	-93.107676	"(36.226827, -93.107676)"	"Alexandria, LA"
"69"	"Nation of Islam"	"Black Separatist"	"black-separatist"	"Pine Bluff"	"Arkansas"	34.228431	-92.003195	"(34.228431, -92.003195)"	"Alexandria, LA"
"69"	"Faith Baptist Church and Ministry"	"Christian Identity"	"christian-identity"	"Houston"	"Missouri"	37.326158	-91.955988	"(37.326158, -91.955988)"	"Alexandria, LA"
"69"	"Southern National Congress"	"Neo-Confederate"	"neo-confederate"	"West Plains"	"Missouri"	36.72	-91.85	"(36.72, -91.85)"	"Alexandria, LA"
"69"	"Aryan Terror Brigade"	"Racist Skinhead"	"racist-skinhead"	""	"Arkansas"	35.198781	-91.83	"(35.198781, -91.83)"	"Alexandria, LA"
"69"	"Southern National Congress"	"Neo-Confederate"	"neo-confederate"	"incomplete"	"Louisiana"	30.98	-91.96	"(30.98, -91.96)"	"Alexandria, LA"
"69"	"Aryan Terror Brigade"	"Racist Skinhead"	"racist-skinhead"	""	"Louisiana"	30.997034	-91.96	"(30.997034, -91.96)"	"Alexandria, LA"
"69"	"Aryan Strikeforce"	"Racist Skinhead"	"racist-skinhead"	""	"Missouri"	37.96	-91.825104	"(37.96, -91.825104)"	"Alexandria, LA"
"69"	"White Boy Society"	"White Nationalist"	"white-nationalist"	""	"Missouri"	37.96	-91.826134	"(37.96, -91.826134)"	"Alexandria, LA"
"69"	"National Socialist Movement"	"Neo-Nazi"	"neo-nazi"	""	"Iowa"	41.87	-93.09	"(41.87, -93.09)"	"Alexandria, LA"
"69"	"Creativity Alliance"	"Neo-Nazi"	"neo-nazi"	""	"Arkansas"	35.2	-91.833	"(35.2, -91.833)"	"Alexandria, LA"
"69"	"Thomas Robb Ministries"	"Christian Identity"	"christian-identity"	"Bergman"	"Arkansas"	36.326745	-93.011942	"(36.326745, -93.011942)"	"Alexandria, LA"
"69"	"Creativity Movement"	"Neo-Nazi"	"neo-nazi"	""	"Missouri"	37.96	-91.83	"(37.96, -91.83)"	"Alexandria, LA"
"69"	"National Socialist Movement"	"Neo-Nazi"	"neo-nazi"	""	"Louisiana"	30.98	-91.967583	"(30.98, -91.967583)"	"Alexandria, LA"
"69"	"Aryan Strikeforce"	"Racist Skinhead"	"racist-skinhead"	""	"Iowa"	41.874163	-93.09	"(41.874163, -93.09)"	"Alexandria, LA"
"69"	"National Socialist Movement"	"Neo-Nazi"	"neo-nazi"	"Springfield"	"Missouri"	37.2	-93.29	"(37.2, -93.29)"	"Alexandria, LA"
"69"	"Ozark Craft LC"	"General Hate"	"other"	"Harrison"	"Arkansas"	36.229793	-93.107676	"(36.229793, -93.107676)"	"Alexandria, LA"
"69"	"Aryan Terror Brigade"	"Racist Skinhead"	"racist-skinhead"	""	"Missouri"	37.962877	-91.83	"(37.962877, -91.83)"	"Alexandria, LA"
"69"	"Tightrope"	"Racist Music"	"racist-music"	"Calico Rock"	"Arkansas"	36.119514	-92.135986	"(36.119514, -92.135986)"	"Alexandria, LA"
"69"	"Aryan Nations LA"	"Neo-Nazi"	"neo-nazi"	""	"Arkansas"	35.1985	-91.83	"(35.1985, -91.83)"	"Alexandria, LA"
"69"	"Free America Rally"	"White Nationalist"	"white-nationalist"	"Incomplete"	"Louisiana"	30.984297	-91.962332	"(30.984297, -91.962332)"	"Alexandria, LA"
"69"	"Forssaken Motorcycle Club"	"Neo-Nazi"	"neo-nazi"	"Center Ridge"	"Arkansas"	35.37387	-92.563537	"(35.37387, -92.563537)"	"Alexandria, LA"
"69"	"Christian Revival Center"	"Christian Identity"	"christian-identity"	"Harrison"	"Arkansas"	36.22	-93.1	"(36.22, -93.1)"	"Alexandria, LA"
"69"	"Kingdom Identity Ministries"	"Christian Identity"	"christian-identity"	"Harrison"	"Arkansas"	36.229999	-93.11	"(36.229999, -93.11)"	"Alexandria, LA"
"69"	"White Pride Home School Resource Center"	"General Hate"	"other"	"Bergman"	"Arkansas"	36.316745	-93.011942	"(36.316745, -93.011942)"	"Alexandria, LA"
"69"	"Supreme White Alliance"	"Racist Skinhead"	"racist-skinhead"	""	"Missouri"	37.956109	-91.83	"(37.956109, -91.83)"	"Alexandria, LA"
"69"	"Southern National Congress"	"Neo-Confederate"	"neo-confederate"	"Incomplete"	"Arkansas"	35.2	-91.83	"(35.2, -91.83)"	"Alexandria, LA"
"69"	"The Remnant Press"	"Radical Traditional Catholicism"	"rad-trad-catholicism"	"Forest Lake"	"Minnesota"	45.283142	-93.010751	"(45.283142, -93.010751)"	"Alexandria, LA"
"69"	"KKKRadio"	"Ku Klux Klan"	"kkk"	"Harrison"	"Arkansas"	36.222673	-93.1	"(36.222673, -93.1)"	"Alexandria, LA"
"69"	"Soldiers Of the Cross Training Institute"	"Ku Klux Klan"	"kkk"	"Harrison"	"Arkansas"	36.225996	-93.107676	"(36.225996, -93.107676)"	"Alexandria, LA"
"69"	"League of the South"	"Neo-Confederate"	"neo-confederate"	"West Plains"	"Missouri"	36.728115	-91.852371	"(36.728115, -91.852371)"	"Alexandria, LA"
"69"	"Knights Party Veterans League"	"Ku Klux Klan"	"kkk"	"Harrison"	"Arkansas"	36.229793	-93.102264	"(36.229793, -93.102264)"	"Alexandria, LA"
"69"	"National Socialist Freedom Movement"	"Neo-Nazi"	"neo-nazi"	""	"Louisiana"	30.984673	-91.96	"(30.984673, -91.96)"	"Alexandria, LA"
"69"	"Heritage Connection"	"Racist Music"	"racist-music"	"Harrison"	"Arkansas"	36.229793	-93.096085	"(36.229793, -93.096085)"	"Alexandria, LA"
"74"	"National Socialist Movement"	"Neo-Nazi"	"neo-nazi"	""	"Delaware"	39.15	-75.52	"(39.15, -75.52)"	"Allentown-Bethlehem, PA-NJ"
"74"	"Israelite Church of God in Jesus Christ"	"Black Separatist"	"black-separatist"	"Camden"	"New Jersey"	39.955614	-75.116591	"(39.955614, -75.116591)"	"Allentown-Bethlehem, PA-NJ"
"74"	"National Socialist Movement"	"Neo-Nazi"	"neo-nazi"	"Holland"	"New Jersey"	40.59	-75.11	"(40.59, -75.11)"	"Allentown-Bethlehem, PA-NJ"
"74"	"Vinlanders New Jersey"	"Racist Skinhead"	"racist-skinhead"	"Cherry Hill"	"New Jersey"	39.92	-75.02	"(39.92, -75.02)"	"Allentown-Bethlehem, PA-NJ"
"74"	"AC Skins"	"Racist Skinhead"	"racist-skinhead"	"Woodbine"	"New Jersey"	39.24	-74.81	"(39.24, -74.81)"	"Allentown-Bethlehem, PA-NJ"
"74"	"Nation of Islam"	"Black Separatist"	"black-separatist"	"Wilmington"	"Delaware"	39.760071	-75.533492	"(39.760071, -75.533492)"	"Allentown-Bethlehem, PA-NJ"
"74"	"National Socialist Freedom Movement"	"Neo-Nazi"	"neo-nazi"	""	"Delaware"	38.934007	-75.387852	"(38.934007, -75.387852)"	"Allentown-Bethlehem, PA-NJ"
"74"	"Keystone State Skinheads"	"Racist Skinhead"	"racist-skinhead"	"Philadelphia"	"Pennsylvania"	39.95	-75.16	"(39.95, -75.16)"	"Allentown-Bethlehem, PA-NJ"
"74"	"Israelite Church of God in Jesus Christ"	"Black Separatist"	"black-separatist"	"Philadelphia"	"Pennsylvania"	39.986353	-75.101994	"(39.986353, -75.101994)"	"Allentown-Bethlehem, PA-NJ"
"74"	"Eastern Hammerskins"	"Racist Skinhead"	"racist-skinhead"	"Allentown"	"Pennsylvania"	40.6	-75.49	"(40.6, -75.49)"	"Allentown-Bethlehem, PA-NJ"
"74"	"AC Skins"	"Racist Skinhead"	"racist-skinhead"	"Pine Hill"	"New Jersey"	39.78	-74.99	"(39.78, -74.99)"	"Allentown-Bethlehem, PA-NJ"
"74"	"Micetrap Distribution"	"Racist Music"	"racist-music"	"Maple Shade Township"	"New Jersey"	39.952612	-74.992391	"(39.952612, -74.992391)"	"Allentown-Bethlehem, PA-NJ"
"74"	"Reformation-Bible Puritan-Baptist Church"	"General Hate"	"other"	"Newmanstown"	"Pennsylvania"	40.349536	-76.213282	"(40.349536, -76.213282)"	"Allentown-Bethlehem, PA-NJ"
"74"	"National Socialist Movement"	"Neo-Nazi"	"neo-nazi"	"Pemberton Township"	"New Jersey"	39.97	-74.58	"(39.97, -74.58)"	"Allentown-Bethlehem, PA-NJ"
"74"	"Israelite Church of God in Jesus Christ"	"Black Separatist"	"black-separatist"	"Coatesville"	"Pennsylvania"	39.983161	-75.823835	"(39.983161, -75.823835)"	"Allentown-Bethlehem, PA-NJ"
"74"	"AC Skins"	"Racist Skinhead"	"racist-skinhead"	"Pemberton Township"	"New Jersey"	39.967122	-74.58	"(39.967122, -74.58)"	"Allentown-Bethlehem, PA-NJ"
"74"	"Advanced White Society"	"White Nationalist"	"white-nationalist"	"Pemberton Township"	"New Jersey"	39.976782	-74.710158	"(39.976782, -74.710158)"	"Allentown-Bethlehem, PA-NJ"
"74"	"Nation of Islam"	"Black Separatist"	"black-separatist"	"Chester"	"Pennsylvania"	39.839981	-75.375362	"(39.839981, -75.375362)"	"Allentown-Bethlehem, PA-NJ"
"74"	"As-Sabiqun"	"General Hate"	"other"	"Philadelphia"	"Pennsylvania"	39.959811	-75.16074	"(39.959811, -75.16074)"	"Allentown-Bethlehem, PA-NJ"
"74"	"Radio Jihad"	"Anti-Muslim"	"anti-muslim"	""	"New York"	43.06505	-74.850713	"(43.06505, -74.850713)"	"Allentown-Bethlehem, PA-NJ"
"74"	"Israelite Church of God in Jesus Christ"	"Black Separatist"	"black-separatist"	"Norristown"	"Pennsylvania"	40.121497	-75.339904	"(40.121497, -75.339904)"	"Allentown-Bethlehem, PA-NJ"
"74"	"Israelite Church of God in Jesus Christ"	"Black Separatist"	"black-separatist"	"Vineland"	"New Jersey"	39.478782	-75.03775	"(39.478782, -75.03775)"	"Allentown-Bethlehem, PA-NJ"
"74"	"Nation of Islam"	"Black Separatist"	"black-separatist"	"Camden"	"New Jersey"	39.937645	-75.113672	"(39.937645, -75.113672)"	"Allentown-Bethlehem, PA-NJ"
"74"	"Loyal White Knights of the Ku Klux Klan"	"Ku Klux Klan"	"kkk"	""	"New Jersey"	40.215546	-74.604906	"(40.215546, -74.604906)"	"Allentown-Bethlehem, PA-NJ"
"74"	"Poker Face"	"Racist Music"	"racist-music"	"Allentown"	"Pennsylvania"	40.6	-75.47	"(40.6, -75.47)"	"Allentown-Bethlehem, PA-NJ"
"74"	"Committee for Open Debate on the Holocaust"	"Holocaust Denial"	"holocaust-denial"	"Drums"	"Pennsylvania"	41.033165	-76.004373	"(41.033165, -76.004373)"	"Allentown-Bethlehem, PA-NJ"
"74"	"European American Action Coalition"	"White Nationalist"	"white-nationalist"	"Pittston"	"Pennsylvania"	41.325913	-75.78936	"(41.325913, -75.78936)"	"Allentown-Bethlehem, PA-NJ"
"74"	"AC Skins"	"Racist Skinhead"	"racist-skinhead"	"Wildwood"	"New Jersey"	38.99	-74.81	"(38.99, -74.81)"	"Allentown-Bethlehem, PA-NJ"
"74"	"Nation of Islam"	"Black Separatist"	"black-separatist"	"Willingboro"	"New Jersey"	40.02795	-74.886984	"(40.02795, -74.886984)"	"Allentown-Bethlehem, PA-NJ"
"74"	"Aryan Strikeforce"	"Racist Skinhead"	"racist-skinhead"	"Somerville"	"New Jersey"	40.57	-74.6	"(40.57, -74.6)"	"Allentown-Bethlehem, PA-NJ"
"74"	"Israelite Church of God in Jesus Christ"	"Black Separatist"	"black-separatist"	"Philadelphia"	"Pennsylvania"	39.995507	-75.172048	"(39.995507, -75.172048)"	"Allentown-Bethlehem, PA-NJ"
"74"	"AC Skins"	"Racist Skinhead"	"racist-skinhead"	"Marmora"	"New Jersey"	39.26	-74.64	"(39.26, -74.64)"	"Allentown-Bethlehem, PA-NJ"
"74"	"Council of Conservative Citizens"	"White Nationalist"	"white-nationalist"	"Revere"	"Pennsylvania"	40.524861	-75.162564	"(40.524861, -75.162564)"	"Allentown-Bethlehem, PA-NJ"
"74"	"Nation of Islam"	"Black Separatist"	"black-separatist"	"Philadelphia"	"Pennsylvania"	39.991292	-75.155513	"(39.991292, -75.155513)"	"Allentown-Bethlehem, PA-NJ"
"74"	"Israelite Church of God in Jesus Christ"	"Black Separatist"	"black-separatist"	"Allentown"	"Pennsylvania"	40.607381	-75.478166	"(40.607381, -75.478166)"	"Allentown-Bethlehem, PA-NJ"
"74"	"AC Skins"	"Racist Skinhead"	"racist-skinhead"	"Camden"	"New Jersey"	39.92	-75.11	"(39.92, -75.11)"	"Allentown-Bethlehem, PA-NJ"
"74"	"AC Skins"	"Racist Skinhead"	"racist-skinhead"	"Hamilton Township"	"New Jersey"	39.45	-74.72	"(39.45, -74.72)"	"Allentown-Bethlehem, PA-NJ"
"74"	"Catholic Counterpoint"	"Radical Traditional Catholicism"	"rad-trad-catholicism"	"Broomall"	"Pennsylvania"	39.971667	-75.354722	"(39.971667, -75.354722)"	"Allentown-Bethlehem, PA-NJ"
"86"	"Conservative Citizens Foundation Inc"	"White Nationalist"	"white-nationalist"	"Saint Louis"	"Missouri"	38.630539	-90.192821	"(38.630539, -90.192821)"	"Alton-Granite City, IL"
"86"	"Southern National Congress"	"Neo-Confederate"	"neo-confederate"	""	"Mississippi"	32.80735	-89.474217	"(32.80735, -89.474217)"	"Alton-Granite City, IL"
"86"	"Aryan Nations LA"	"Neo-Nazi"	"neo-nazi"	""	"Mississippi"	32.35	-89.39	"(32.35, -89.39)"	"Alton-Granite City, IL"
"86"	"National Association for the Advancement of America"	"White Nationalist"	"white-nationalist"	"McComb"	"Mississippi"	31.16	-90.28	"(31.16, -90.28)"	"Alton-Granite City, IL"
"86"	"Council of Conservative Citizens"	"White Nationalist"	"white-nationalist"	"St. Louis"	"Missouri"	38.578783	-90.421944	"(38.578783, -90.421944)"	"Alton-Granite City, IL"
"86"	"National Socialist Movement"	"Neo-Nazi"	"neo-nazi"	""	"Mississippi"	32.358503	-89.39	"(32.358503, -89.39)"	"Alton-Granite City, IL"
"86"	"Sadistic Souls Motorcycle Club"	"Neo-Nazi"	"neo-nazi"	"Brighton"	"Illinois"	39.03	-90.14	"(39.03, -90.14)"	"Alton-Granite City, IL"
"86"	"Nation of Islam"	"Black Separatist"	"black-separatist"	"Horn Lake"	"Mississippi"	34.963116	-90.032342	"(34.963116, -90.032342)"	"Alton-Granite City, IL"
"86"	"Council of Conservative Citizens"	"White Nationalist"	"white-nationalist"	"Walthall"	"Mississippi"	33.60146	-89.272852	"(33.60146, -89.272852)"	"Alton-Granite City, IL"
"86"	"Political Cesspool"	"White Nationalist"	"white-nationalist"	"Bartlett"	"Tennessee"	35.15	-90.05	"(35.15, -90.05)"	"Alton-Granite City, IL"
"86"	"Traditionalist American Knights of the Ku Klux Klan"	"Ku Klux Klan"	"kkk"	"Potosi"	"Missouri"	37.936438	-90.787908	"(37.936438, -90.787908)"	"Alton-Granite City, IL"
"86"	"Mississippi White Knights of the Ku Klux Klan"	"Ku Klux Klan"	"kkk"	"Bruce"	"Mississippi"	33.992055	-89.348964	"(33.992055, -89.348964)"	"Alton-Granite City, IL"
"86"	"Watchmen Bible Study Group"	"Christian Identity"	"christian-identity"	"Wappapello"	"Missouri"	36.935556	-90.270833	"(36.935556, -90.270833)"	"Alton-Granite City, IL"
"86"	"Nation Of Islam"	"Black Separatist"	"black-separatist"	"East Saint Louis"	"Illinois"	38.615721	-90.116746	"(38.615721, -90.116746)"	"Alton-Granite City, IL"
"86"	"Christian Defense League"	"Neo-Nazi"	"neo-nazi"	"Mandeville"	"Louisiana"	30.36469	-90.08779	"(30.36469, -90.08779)"	"Alton-Granite City, IL"
"86"	"Pilgrims Covenant Church"	"Anti-LGBT"	"anti-lgbt"	"Monroe"	"Wisconsin"	42.601119	-89.638453	"(42.601119, -89.638453)"	"Alton-Granite City, IL"
"86"	"Nation of Islam"	"Black Separatist"	"black-separatist"	"St. Louis"	"Missouri"	38.708457	-90.250618	"(38.708457, -90.250618)"	"Alton-Granite City, IL"
"86"	"Sadistic Souls Motorcycle Club"	"Neo-Nazi"	"neo-nazi"	"Mercer"	"Wisconsin"	46.16	-90.06	"(46.16, -90.06)"	"Alton-Granite City, IL"
"86"	"Invictus Books"	"General Hate"	"other"	"Wentzville"	"Missouri"	38.815492	-90.873918	"(38.815492, -90.873918)"	"Alton-Granite City, IL"
"86"	"Council of Conservative Citizens"	"White Nationalist"	"white-nationalist"	"Calhoun City"	"Mississippi"	33.855391	-89.311461	"(33.855391, -89.311461)"	"Alton-Granite City, IL"
"86"	"Loyal White Knights of the Ku Klux Klan"	"Ku Klux Klan"	"kkk"	""	"Illinois"	40.695773	-89.582474	"(40.695773, -89.582474)"	"Alton-Granite City, IL"
"86"	"Council of Conservative Citizens"	"White Nationalist"	"white-nationalist"	"Jackson"	"Mississippi"	32.350399	-90.152946	"(32.350399, -90.152946)"	"Alton-Granite City, IL"
"86"	"Sadistic Souls Skinheads"	"Racist Skinhead"	"racist-skinhead"	"Wood River"	"Illinois"	38.86	-90.09	"(38.86, -90.09)"	"Alton-Granite City, IL"
"86"	"Nation of Islam"	"Black Separatist"	"black-separatist"	"East Saint Louis"	"Illinois"	38.605721	-90.116746	"(38.605721, -90.116746)"	"Alton-Granite City, IL"
"86"	"Nation of Islam"	"Black Separatist"	"black-separatist"	"Southaven"	"Mississippi"	34.99183	-90.012957	"(34.99183, -90.012957)"	"Alton-Granite City, IL"
"86"	"Loyal White Knights of the Ku Klux Klan"	"Ku Klux Klan"	"kkk"	""	"Mississippi"	32.412414	-90.290181	"(32.412414, -90.290181)"	"Alton-Granite City, IL"
"86"	"Nation of Islam"	"Black Separatist"	"black-separatist"	"Memphis"	"Tennessee"	35.133211	-90.032478	"(35.133211, -90.032478)"	"Alton-Granite City, IL"
"86"	"Aryan Strikeforce"	"Racist Skinhead"	"racist-skinhead"	""	"Illinois"	40.63	-89.39	"(40.63, -89.39)"	"Alton-Granite City, IL"
"86"	"New Black Panther Party"	"Black Separatist"	"black-separatist"	"St. Louis"	"Missouri"	38.629185	-90.217431	"(38.629185, -90.217431)"	"Alton-Granite City, IL"
"86"	"International Keystone Knights of the Ku Klux Klan"	"Ku Klux Klan"	"kkk"	"Vanndale"	"Arkansas"	35.313526	-90.773943	"(35.313526, -90.773943)"	"Alton-Granite City, IL"
"86"	"Council of Conservative Citizens"	"White Nationalist"	"white-nationalist"	"St. Louis"	"Missouri"	38.568783	-90.421944	"(38.568783, -90.421944)"	"Alton-Granite City, IL"
"86"	"Nation of Islam"	"Black Separatist"	"black-separatist"	"Peoria"	"Illinois"	40.66965	-89.639286	"(40.66965, -89.639286)"	"Alton-Granite City, IL"
"86"	"Crew 38"	"Racist Skinhead"	"racist-skinhead"	""	"Mississippi"	32.35	-89.396095	"(32.35, -89.396095)"	"Alton-Granite City, IL"
"86"	"Nation of Islam"	"Black Separatist"	"black-separatist"	"New Orleans"	"Louisiana"	30.013167	-90.020895	"(30.013167, -90.020895)"	"Alton-Granite City, IL"
"86"	"Divine International Church of the Web"	"Christian Identity"	"christian-identity"	"Morton"	"Illinois"	40.61	-89.45	"(40.61, -89.45)"	"Alton-Granite City, IL"
"86"	"Ku Klos Knights of the Ku Klux Klan"	"Ku Klux Klan"	"kkk"	"Memphis"	"Tennessee"	35.236823	-90.018655	"(35.236823, -90.018655)"	"Alton-Granite City, IL"
"86"	"Council of Conservative Citizens"	"White Nationalist"	"white-nationalist"	"Vaiden"	"Mississippi"	33.33207	-89.741193	"(33.33207, -89.741193)"	"Alton-Granite City, IL"
"86"	"Die Auserwahlten"	"Racist Skinhead"	"racist-skinhead"	"Brownsfield"	"Louisiana"	30.69	-90.97	"(30.69, -90.97)"	"Alton-Granite City, IL"
"86"	"Nation of Islam"	"Black Separatist"	"black-separatist"	"Jackson"	"Mississippi"	32.304923	-90.201023	"(32.304923, -90.201023)"	"Alton-Granite City, IL"
"86"	"Nationalist Movement"	"White Nationalist"	"white-nationalist"	"Learned"	"Mississippi"	32.19	-90.54	"(32.19, -90.54)"	"Alton-Granite City, IL"
"86"	"United Dixie White Knights Ku Klux Klan"	"Ku Klux Klan"	"kkk"	"Jackson"	"Mississippi"	32.422414	-90.290181	"(32.422414, -90.290181)"	"Alton-Granite City, IL"
"86"	"South Africa Project"	"White Nationalist"	"white-nationalist"	"Mandeville"	"Louisiana"	30.37469	-90.08779	"(30.37469, -90.08779)"	"Alton-Granite City, IL"
"86"	"White Boy Society"	"White Nationalist"	"white-nationalist"	""	"Illinois"	40.633757	-89.39	"(40.633757, -89.39)"	"Alton-Granite City, IL"
"910"	"VDARE Foundation"	"White Nationalist"	"white-nationalist"	"Warrenton"	"Virginia"	38.713451	-77.795271	"(38.713451, -77.795271)"	"Altoona, PA"
"910"	"National Socialist Freedom Movement"	"Neo-Nazi"	"neo-nazi"	""	"Virginia"	37.43	-78.654213	"(37.43, -78.654213)"	"Altoona, PA"
"910"	"Crew 38"	"Racist Skinhead"	"racist-skinhead"	""	"Virginia"	37.436158	-78.65	"(37.436158, -78.65)"	"Altoona, PA"
"910"	"Racial Nationalist Party of America"	"White Nationalist"	"white-nationalist"	"Lockport"	"New York"	43.172146	-78.683823	"(43.172146, -78.683823)"	"Altoona, PA"
"910"	"Aryan Strikeforce"	"Racist Skinhead"	"racist-skinhead"	""	"Virginia"	37.435885	-78.65	"(37.435885, -78.65)"	"Altoona, PA"
"910"	"Catholic Family News/Catholic Family Ministries Inc."	"Radical Traditional Catholicism"	"rad-trad-catholicism"	"Niagara Falls"	"New York"	43.086335	-79.059163	"(43.086335, -79.059163)"	"Altoona, PA"
"910"	"White Boy Society"	"White Nationalist"	"white-nationalist"	""	"Virginia"	37.43	-78.653526	"(37.43, -78.653526)"	"Altoona, PA"
"910"	"Nation of Islam"	"Black Separatist"	"black-separatist"	"Buffalo"	"New York"	42.909791	-78.824274	"(42.909791, -78.824274)"	"Altoona, PA"
"910"	"Blood and Honour U.S.A."	"Racist Skinhead"	"racist-skinhead"	"Altoona"	"Pennsylvania"	40.51868	-78.394735	"(40.51868, -78.394735)"	"Altoona, PA"
"910"	"Aryan Terror Brigade"	"Racist Skinhead"	"racist-skinhead"	""	"Virginia"	37.43	-78.64872	"(37.43, -78.64872)"	"Altoona, PA"
"910"	"Heritage and Destiny"	"White Nationalist"	"white-nationalist"	"Little Orleans"	"Maryland"	39.704965	-78.364742	"(39.704965, -78.364742)"	"Altoona, PA"
"910"	"Most Holy Family Monastery"	"Radical Traditional Catholicism"	"rad-trad-catholicism"	"Fillmore"	"New York"	42.438091	-77.985067	"(42.438091, -77.985067)"	"Altoona, PA"
"910"	"League of the South"	"Neo-Confederate"	"neo-confederate"	"incomplete"	"Virginia"	37.43	-78.65	"(37.43, -78.65)"	"Altoona, PA"
"910"	"American Freedom Party"	"White Nationalist"	"white-nationalist"	"Incomplete"	"Indiana"	40.62	-79.15	"(40.62, -79.15)"	"Altoona, PA"
"910"	"Robert Sungenis"	"Radical Traditional Catholicism"	"rad-trad-catholicism"	"State Line"	"Pennsylvania"	39.722976	-77.724641	"(39.722976, -77.724641)"	"Altoona, PA"
"910"	"Creativity Alliance"	"Neo-Nazi"	"neo-nazi"	""	"Virginia"	37.430978	-78.65	"(37.430978, -78.65)"	"Altoona, PA"
"910"	"Sadistic Souls Motorcycle Club"	"Neo-Nazi"	"neo-nazi"	"Friedens"	"Pennsylvania"	40.05	-78.99	"(40.05, -78.99)"	"Altoona, PA"
"1110"	"Tony Alamo Christian Ministries"	"General Hate"	"other"	"Canyon Country"	"California"	34.438411	-118.457197	"(34.438411, -118.457197)"	"Anaheim-Santa Ana, CA"
"1110"	"Western Hammerskins"	"Racist Skinhead"	"racist-skinhead"	"Menifee"	"California"	33.67	-117.16	"(33.67, -117.16)"	"Anaheim-Santa Ana, CA"
"1110"	"Jihad Watch"	"Anti-Muslim"	"anti-muslim"	"Sherman Oaks"	"California"	34.2	-118.47	"(34.2, -118.47)"	"Anaheim-Santa Ana, CA"
"1110"	"Nation of Islam"	"Black Separatist"	"black-separatist"	"Los Angeles"	"California"	33.990382	-118.328661	"(33.990382, -118.328661)"	"Anaheim-Santa Ana, CA"
"1110"	"United Society of Aryan Skinheads"	"Racist Skinhead"	"racist-skinhead"	"San Diego"	"California"	32.71	-117.26	"(32.71, -117.26)"	"Anaheim-Santa Ana, CA"
"1110"	"Ruth Institute"	"Anti-LGBT"	"anti-lgbt"	"San Marcos"	"California"	33.115866	-117.185294	"(33.115866, -117.185294)"	"Anaheim-Santa Ana, CA"
"1110"	"California Coalition for Immigration Reform"	"Anti-Immigrant"	"anti-immigrant"	"Huntington Beach"	"California"	33.72	-118.02	"(33.72, -118.02)"	"Anaheim-Santa Ana, CA"
"1110"	"Counter-Currents Publishing"	"White Nationalist"	"white-nationalist"	"San Diego"	"California"	32.73	-117.16	"(32.73, -117.16)"	"Anaheim-Santa Ana, CA"
"1110"	"Chick Publications"	"General Hate"	"other"	"Ontario"	"California"	34.020485	-117.652468	"(34.020485, -117.652468)"	"Anaheim-Santa Ana, CA"
"1110"	"Institute for Historical Review"	"Holocaust Denial"	"holocaust-denial"	"Fountain Valley"	"California"	33.696907	-117.943875	"(33.696907, -117.943875)"	"Anaheim-Santa Ana, CA"
"1110"	"Bare Naked Islam"	"Anti-Muslim"	"anti-muslim"	"Marina del Rey"	"California"	33.980289	-118.451744	"(33.980289, -118.451744)"	"Anaheim-Santa Ana, CA"
"1110"	"Official Street Preachers"	"General Hate"	"other"	"Los Angeles"	"California"	34.079616	-118.258509	"(34.079616, -118.258509)"	"Anaheim-Santa Ana, CA"
"1110"	"Counter Jihadist Coalition of Southern California"	"Anti-Muslim"	"anti-muslim"	"Santa Monica"	"California"	34.019454	-118.491191	"(34.019454, -118.491191)"	"Anaheim-Santa Ana, CA"
"1110"	"Traditional Values Coalition"	"Anti-LGBT"	"anti-lgbt"	"Anaheim"	"California"	33.827605	-117.907324	"(33.827605, -117.907324)"	"Anaheim-Santa Ana, CA"
"1110"	"Orange County Skins"	"Racist Skinhead"	"racist-skinhead"	""	"California"	33.71	-117.83	"(33.71, -117.83)"	"Anaheim-Santa Ana, CA"
"1110"	"OMNI Christian Book Club"	"Radical Traditional Catholicism"	"rad-trad-catholicism"	"Palmdale"	"California"	34.35794	-118.065444	"(34.35794, -118.065444)"	"Anaheim-Santa Ana, CA"
"1110"	"American Freedom Party"	"White Nationalist"	"white-nationalist"	"Los Angeles"	"California"	34.05375	-118.255034	"(34.05375, -118.255034)"	"Anaheim-Santa Ana, CA"
"1110"	"Black Riders Liberation Party"	"Black Separatist"	"black-separatist"	"Los Angeles"	"California"	34.008323	-118.349116	"(34.008323, -118.349116)"	"Anaheim-Santa Ana, CA"
"1110"	"Noontide Press"	"Holocaust Denial"	"holocaust-denial"	"Newport Beach"	"California"	33.597429	-117.837004	"(33.597429, -117.837004)"	"Anaheim-Santa Ana, CA"
"1110"	"As-Sabiqun"	"General Hate"	"other"	"Los Angeles"	"California"	34.065562	-118.309664	"(34.065562, -118.309664)"	"Anaheim-Santa Ana, CA"
"1110"	"American Nazi Party"	"Neo-Nazi"	"neo-nazi"	"Rialto"	"California"	34.155954	-117.402774	"(34.155954, -117.402774)"	"Anaheim-Santa Ana, CA"
"1110"	"Christian Anti-Defamation Commission"	"General Hate"	"other"	"Vista"	"California"	33.221773	-117.226056	"(33.221773, -117.226056)"	"Anaheim-Santa Ana, CA"
"1110"	"Tradition in Action"	"Radical Traditional Catholicism"	"rad-trad-catholicism"	"Los Angeles"	"California"	34.022447	-118.200027	"(34.022447, -118.200027)"	"Anaheim-Santa Ana, CA"
"1110"	"Western Hammerskins"	"Racist Skinhead"	"racist-skinhead"	"San Diego"	"California"	32.710782	-117.156173	"(32.710782, -117.156173)"	"Anaheim-Santa Ana, CA"
"1110"	"Get Some 88"	"Racist Music"	"racist-music"	"Castaic"	"California"	34.455694	-118.635805	"(34.455694, -118.635805)"	"Anaheim-Santa Ana, CA"
"1110"	"Institute for Historical Review Store"	"Holocaust Denial"	"holocaust-denial"	"Newport Beach"	"California"	33.621453	-117.923675	"(33.621453, -117.923675)"	"Anaheim-Santa Ana, CA"
"1110"	"National Socialist Movement"	"Neo-Nazi"	"neo-nazi"	"San Diego"	"California"	32.71	-117.16	"(32.71, -117.16)"	"Anaheim-Santa Ana, CA"
"1110"	"Nation of Islam"	"Black Separatist"	"black-separatist"	"Compton"	"California"	33.889068	-118.200027	"(33.889068, -118.200027)"	"Anaheim-Santa Ana, CA"
"1310"	"Council of Conservative Citizens"	"White Nationalist"	"white-nationalist"	"Montgomery"	"Alabama"	32.398931	-86.322463	"(32.398931, -86.322463)"	"Anderson, IN"
"1310"	"TC Family (Traverse City Family)"	"Anti-LGBT"	"anti-lgbt"	"Traverse City"	"Michigan"	44.763056	-85.620631	"(44.763056, -85.620631)"	"Anderson, IN"
"1310"	"United Klans of America"	"Ku Klux Klan"	"kkk"	"Anniston"	"Alabama"	33.659825	-85.831631	"(33.659825, -85.831631)"	"Anderson, IN"
"1310"	"American Front"	"Racist Skinhead"	"racist-skinhead"	"Lynn Haven"	"Florida"	30.24	-85.64	"(30.24, -85.64)"	"Anderson, IN"
"1310"	"Supreme White Alliance"	"Racist Skinhead"	"racist-skinhead"	"Frankfort"	"Kentucky"	38.248101	-84.898477	"(38.248101, -84.898477)"	"Anderson, IN"
"1310"	"White Aryan Resistance"	"Neo-Nazi"	"neo-nazi"	"Warsaw"	"Indiana"	41.23	-85.85	"(41.23, -85.85)"	"Anderson, IN"
"1310"	"Occidental Dissent"	"White Nationalist"	"white-nationalist"	"Eufaula"	"Alabama"	31.979345	-85.168674	"(31.979345, -85.168674)"	"Anderson, IN"
"1310"	"Vinlanders Indiana"	"Racist Skinhead"	"racist-skinhead"	"Knightstown"	"Indiana"	39.79	-85.52	"(39.79, -85.52)"	"Anderson, IN"
"1310"	"Council of Conservative Citizens"	"White Nationalist"	"white-nationalist"	"Eufaula"	"Alabama"	31.969345	-85.168674	"(31.969345, -85.168674)"	"Anderson, IN"
"1310"	"American Vikings"	"White Nationalist"	"white-nationalist"	"Knightstown"	"Indiana"	39.791127	-85.52	"(39.791127, -85.52)"	"Anderson, IN"
"1310"	"Loyal White Knights of the Ku Klux Klan"	"Ku Klux Klan"	"kkk"	"Kokomo"	"Indiana"	40.535199	-86.18	"(40.535199, -86.18)"	"Anderson, IN"
"1310"	"Aryan Strikeforce"	"Racist Skinhead"	"racist-skinhead"	""	"Indiana"	40.263547	-86.13	"(40.263547, -86.13)"	"Anderson, IN"
"1310"	"Aryan Nations OH"	"Neo-Nazi"	"neo-nazi"	""	"Michigan"	44.31	-85.6	"(44.31, -85.6)"	"Anderson, IN"
"1310"	"Social Contract Press"	"Anti-Immigrant"	"anti-immigrant"	"Petoskey"	"Michigan"	45.373342	-84.955329	"(45.373342, -84.955329)"	"Anderson, IN"
"1310"	"United Klans of America"	"Ku Klux Klan"	"kkk"	"Ashland"	"Alabama"	33.273725	-85.836074	"(33.273725, -85.836074)"	"Anderson, IN"
"1310"	"WTM Enterprises"	"White Nationalist"	"white-nationalist"	"Roanoke"	"Indiana"	40.962546	-85.373307	"(40.962546, -85.373307)"	"Anderson, IN"
"1310"	"Heathens Motorcycle Club"	"Neo-Nazi"	"neo-nazi"	"Rome"	"Georgia"	34.257038	-85.164672	"(34.257038, -85.164672)"	"Anderson, IN"
"1310"	"Gallows Tree Wotansvolk Alliance"	"Neo-Nazi"	"neo-nazi"	""	"Indiana"	40.26	-86.13	"(40.26, -86.13)"	"Anderson, IN"
"1310"	"League of the South"	"Neo-Confederate"	"neo-confederate"	"Wetumpka"	"Alabama"	32.553744	-86.211912	"(32.553744, -86.211912)"	"Anderson, IN"
"1310"	"Original Knight Riders Knights of the Ku Klux Klan"	"Ku Klux Klan"	"kkk"	"Frankfort"	"Kentucky"	38.200905	-84.873283	"(38.200905, -84.873283)"	"Anderson, IN"
"1310"	"Nation of Islam"	"Black Separatist"	"black-separatist"	"Grand Rapids"	"Michigan"	42.920478	-85.647216	"(42.920478, -85.647216)"	"Anderson, IN"
"1310"	"Loyal White Knights of the Ku Klux Klan"	"Ku Klux Klan"	"kkk"	""	"Kentucky"	38.258101	-84.898477	"(38.258101, -84.898477)"	"Anderson, IN"
"1310"	"Protestant White Nationalist Party of Kentucky/Uncreated Light"	"White Nationalist"	"white-nationalist"	"Louisville"	"Kentucky"	38.25	-85.75	"(38.25, -85.75)"	"Anderson, IN"
"1310"	"Culture Wars/Fidelity Press"	"Radical Traditional Catholicism"	"rad-trad-catholicism"	"South Bend"	"Indiana"	41.689403	-86.252357	"(41.689403, -86.252357)"	"Anderson, IN"
"1310"	"Fraternal Order of the Cross"	"Ku Klux Klan"	"kkk"	"Madison"	"Indiana"	38.735893	-85.379957	"(38.735893, -85.379957)"	"Anderson, IN"
"1310"	"Traditionalist Youth Network at Indiana University"	"White Nationalist"	"white-nationalist"	"Bloomington"	"Indiana"	39.165325	-86.526385	"(39.165325, -86.526385)"	"Anderson, IN"
"1310"	"Crew 38"	"Racist Skinhead"	"racist-skinhead"	""	"Indiana"	40.26	-86.123543	"(40.26, -86.123543)"	"Anderson, IN"
"1310"	"Nation of Islam"	"Black Separatist"	"black-separatist"	"Indianapolis"	"Indiana"	39.802988	-86.103918	"(39.802988, -86.103918)"	"Anderson, IN"
"1310"	"Southern National Congress"	"Neo-Confederate"	"neo-confederate"	"Wetumpka"	"Alabama"	32.543744	-86.211912	"(32.543744, -86.211912)"	"Anderson, IN"
"1310"	"Gallows Tree Wotansvolk Alliance"	"Neo-Nazi"	"neo-nazi"	"Grand Rapids"	"Michigan"	42.96	-85.66	"(42.96, -85.66)"	"Anderson, IN"
"1310"	"Ku Klos Knights of the Ku Klux Klan"	"Ku Klux Klan"	"kkk"	"Kokomo"	"Indiana"	40.53	-86.18	"(40.53, -86.18)"	"Anderson, IN"
"1310"	"National Youth Front"	"White Nationalist"	"white-nationalist"	"Indianapolis"	"Indiana"	39.76	-86.15	"(39.76, -86.15)"	"Anderson, IN"
"1310"	"Nation of Islam"	"Black Separatist"	"black-separatist"	"Chattanooga"	"Tennessee"	35.001011	-85.316206	"(35.001011, -85.316206)"	"Anderson, IN"
"1410"	"New Black Panther Party"	"Black Separatist"	"black-separatist"	"Tampa"	"Florida"	27.950575	-82.457177	"(27.950575, -82.457177)"	"Anderson, SC"
"1410"	"Bill Keller Ministries"	"General Hate"	"other"	"St. Petersburg"	"Florida"	27.813325	-82.729217	"(27.813325, -82.729217)"	"Anderson, SC"
"1410"	"Council of Conservative Citizens"	"White Nationalist"	"white-nationalist"	"Beverly Hills"	"Florida"	28.92	-82.459999	"(28.92, -82.459999)"	"Anderson, SC"
"1410"	"Sadistic Souls Motorcycle Club"	"Neo-Nazi"	"neo-nazi"	"Crestline"	"Ohio"	40.78	-82.73	"(40.78, -82.73)"	"Anderson, SC"
"1410"	"Advanced White Society"	"White Nationalist"	"white-nationalist"	"Delaware"	"Delaware"	40.298672	-83.067965	"(40.298672, -83.067965)"	"Anderson, SC"
"1410"	"Original Knight Riders Knights of the Ku Klux Klan"	"Ku Klux Klan"	"kkk"	"Columbus"	"Ohio"	39.96026	-83.00928	"(39.96026, -83.00928)"	"Anderson, SC"
"1410"	"Loyal White Knights of the Ku Klux Klan"	"Ku Klux Klan"	"kkk"	""	"Ohio"	39.96026	-83.00928	"(39.96026, -83.00928)"	"Anderson, SC"
"1410"	"Florida Family Association"	"General Hate"	"other"	"Tampa"	"Florida"	27.95	-82.459999	"(27.95, -82.459999)"	"Anderson, SC"
"1410"	"Council of Conservative Citizens"	"White Nationalist"	"white-nationalist"	"Kingsport"	"Tennessee"	36.54939	-82.562369	"(36.54939, -82.562369)"	"Anderson, SC"
"1410"	"All Eyes on Egypt Bookstore"	"Black Separatist"	"black-separatist"	"Milledgeville"	"Georgia"	33.06	-83.21	"(33.06, -83.21)"	"Anderson, SC"
"1410"	"The Daily Stormer"	"White Nationalist"	"white-nationalist"	"Worthington"	"Ohio"	40.1	-83.01	"(40.1, -83.01)"	"Anderson, SC"
"1410"	"Council of Conservative Citizens"	"White Nationalist"	"white-nationalist"	""	"Georgia"	33.046893	-81.99711	"(33.046893, -81.99711)"	"Anderson, SC"
"1410"	"Sharkhunters International"	"General Hate"	"other"	"Hernando"	"Florida"	28.899981	-82.37454	"(28.899981, -82.37454)"	"Anderson, SC"
"1410"	"United Northern and Southern Knights of the Ku Klux Klan"	"Ku Klux Klan"	"kkk"	"Rockledge"	"Georgia"	32.442947	-82.697636	"(32.442947, -82.697636)"	"Anderson, SC"
"1410"	"Vinlanders Ohio"	"Racist Skinhead"	"racist-skinhead"	""	"Ohio"	40.103832	-83.030024	"(40.103832, -83.030024)"	"Anderson, SC"
"1410"	"ISD Records"	"Racist Music"	"racist-music"	"Lancaster"	"Ohio"	39.713675	-82.599329	"(39.713675, -82.599329)"	"Anderson, SC"
"1410"	"Free America Rally"	"White Nationalist"	"white-nationalist"	"Incomplete"	"Georgia"	32.165622	-82.910075	"(32.165622, -82.910075)"	"Anderson, SC"
"1410"	"True Light Pentecost Church"	"Anti-LGBT"	"anti-lgbt"	"Spartanburg"	"South Carolina"	34.949567	-81.932048	"(34.949567, -81.932048)"	"Anderson, SC"
"1410"	"Southern Patriot Shoppe"	"Neo-Confederate"	"neo-confederate"	"Abbeville"	"South Carolina"	34.17	-82.37	"(34.17, -82.37)"	"Anderson, SC"
"1410"	"Southern National Congress"	"Neo-Confederate"	"neo-confederate"	"Travelers Rest"	"South Carolina"	34.967616	-82.443454	"(34.967616, -82.443454)"	"Anderson, SC"
"1410"	"Nationalist Coalition"	"Neo-Nazi"	"neo-nazi"	"St Petersburg"	"Florida"	27.77	-82.63	"(27.77, -82.63)"	"Anderson, SC"
"1410"	"Mission: America"	"Anti-LGBT"	"anti-lgbt"	"Columbus"	"Ohio"	39.955692	-82.934021	"(39.955692, -82.934021)"	"Anderson, SC"
"1410"	"Pass the Salt Ministries"	"Anti-LGBT"	"anti-lgbt"	"Hebron"	"Ohio"	39.96	-82.49	"(39.96, -82.49)"	"Anderson, SC"
"1410"	"Americans Have Had Enough"	"Anti-Immigrant"	"anti-immigrant"	"Mauldin"	"South Carolina"	34.77	-82.31	"(34.77, -82.31)"	"Anderson, SC"
"1410"	"Ku Klos Knights of the Ku Klux Klan"	"Ku Klux Klan"	"kkk"	"Kingsport"	"Tennessee"	36.534534	-82.486105	"(36.534534, -82.486105)"	"Anderson, SC"
"1410"	"National Alliance"	"Neo-Nazi"	"neo-nazi"	"Mountain City"	"Tennessee"	36.47	-81.8	"(36.47, -81.8)"	"Anderson, SC"
"1410"	"American Nazi Party"	"Neo-Nazi"	"neo-nazi"	""	"Ohio"	40.103832	-83.020024	"(40.103832, -83.020024)"	"Anderson, SC"
"1410"	"Supreme White Alliance"	"Racist Skinhead"	"racist-skinhead"	"Columbus"	"Ohio"	40.113832	-83.020024	"(40.113832, -83.020024)"	"Anderson, SC"
"1410"	"Dixie Republic"	"Neo-Confederate"	"neo-confederate"	"Travelers Rest"	"South Carolina"	34.977616	-82.443454	"(34.977616, -82.443454)"	"Anderson, SC"
"1410"	"League of the South/Southern Culture Center"	"Neo-Confederate"	"neo-confederate"	"Abbeville"	"South Carolina"	34.178171	-82.379014	"(34.178171, -82.379014)"	"Anderson, SC"
"1410"	"Nation of Islam"	"Black Separatist"	"black-separatist"	"Columbus"	"Ohio"	39.970594	-82.968973	"(39.970594, -82.968973)"	"Anderson, SC"
"1410"	"Nation Of Islam"	"Black Separatist"	"black-separatist"	"Augusta"	"Georgia"	33.477583	-82.013465	"(33.477583, -82.013465)"	"Anderson, SC"
"1410"	"Creativity Alliance"	"Neo-Nazi"	"neo-nazi"	""	"Georgia"	32.16	-82.9	"(32.16, -82.9)"	"Anderson, SC"
"1410"	"Nation of Islam"	"Black Separatist"	"black-separatist"	"Saint Petersburg"	"Florida"	27.734624	-82.632137	"(27.734624, -82.632137)"	"Anderson, SC"
"1410"	"Advanced White Society"	"White Nationalist"	"white-nationalist"	"Statewide"	"Georgia"	32.165622	-82.900075	"(32.165622, -82.900075)"	"Anderson, SC"
"1410"	"Loyal White Knights of the Ku Klux Klan"	"Ku Klux Klan"	"kkk"	""	"Georgia"	32.232644	-83.464355	"(32.232644, -83.464355)"	"Anderson, SC"
"1410"	"Aryan Strikeforce"	"Racist Skinhead"	"racist-skinhead"	""	"Ohio"	40.41	-82.9	"(40.41, -82.9)"	"Anderson, SC"
"1410"	"Ku Klos Knights of the Ku Klux Klan"	"Ku Klux Klan"	"kkk"	"Church Hill"	"Tennessee"	36.52232	-82.713492	"(36.52232, -82.713492)"	"Anderson, SC"
"1410"	"Ku Klos Knights of the Ku Klux Klan"	"Ku Klux Klan"	"kkk"	"Butler"	"Tennessee"	36.318346	-81.975299	"(36.318346, -81.975299)"	"Anderson, SC"
